id_ibge,regiao_cptec,nome,uf,latitude,longitude,altitude
1200013,272,Acrelândia,AC,-9.8278,-66.8833,25
1200054,652,"Assis Brasil",AC,-10.9414,-69.5669,239
1200104,985,Brasiléia,AC,-11.0161,-68.7481,172
1200138,1027,Bujari,AC,-9.8306,-67.9522,50
1200179,1308,Capixaba,AC,-10.5728,-67.6756,40
1200203,1704,"Cruzeiro do Sul",AC,-7.6311,-72.6700,182
1200252,1896,Epitaciolândia,AC,-11.0289,-68.7414,0
1200302,1974,Feijó,AC,-8.1642,-70.3536,153
1200328,2810,Jordão,AC,-9.4342,-71.8839,278
1200336,3082,"Mâncio Lima",AC,-7.6142,-72.8958,195
1200344,3096,"Manoel Urbano",AC,-8.8389,-69.2597,162
1200351,3142,"Marechal Thaumaturgo",AC,-8.9411,-72.7917,190
1200385,4053,"Plácido de Castro",AC,-10.3353,-67.1856,136
1200807,4126,"Porto Acre",AC,-9.5883,-67.5325,145
1200393,4158,"Porto Walter",AC,-8.2686,-72.7439,195
1200401,240,"Rio Branco",AC,-9.9747,-67.8100,153
1200427,4436,"Rodrigues Alves",AC,-7.7417,-72.6361,0
1200435,4641,"Santa Rosa do Purus",AC,-9.4328,-70.4933,25
1200500,5125,"Sena Madureira",AC,-9.0656,-68.6569,150
1200450,5133,"Senador Guiomard",AC,-10.1522,-67.7392,201
1200609,5339,Tarauacá,AC,-8.1614,-70.7656,168
1200708,5718,Xapuri,AC,-10.6517,-68.5044,150
2700102,296,"Água Branca",AL,-9.2608,-37.9361,570
2700201,454,Anadia,AL,-9.6844,-36.3042,153
2700300,574,Arapiraca,AL,-9.7525,-36.6611,264
2700409,658,Atalaia,AL,-9.5019,-36.0228,54
2700508,753,"Barra de Santo Antônio",AL,-9.4047,-35.5072,10
2700607,756,"Barra de São Miguel",AL,-9.8400,-35.9078,2
2700706,802,Batalha,AL,-9.6778,-37.1247,120
2700805,820,Belém,AL,-9.5711,-36.4922,311
2700904,831,"Belo Monte",AL,-9.8283,-37.2800,30
2701001,887,"Boca da Mata",AL,-9.6414,-36.2203,132
2701100,978,Branquinha,AL,-9.2456,-36.0153,100
2701209,1092,Cacimbinhas,AL,-9.4003,-36.9903,270
2701308,1130,Cajueiro,AL,-9.3967,-36.1536,102
2701357,1168,Campestre,AL,-8.8458,-35.5681,0
2701407,1186,"Campo Alegre",AL,-9.7819,-36.3508,176
2701506,1202,"Campo Grande",AL,-9.9578,-36.7917,142
2701605,1233,Canapi,AL,-9.1169,-37.6022,342
2701704,1282,Capela,AL,-9.4075,-36.0736,84
2701803,1370,Carneiros,AL,-9.4825,-37.3772,347
2701902,1467,"Chã Preta",AL,-9.2553,-36.2961,463
2702009,1524,"Coité do Nóia",AL,-9.6322,-36.5786,280
2702108,1539,"Colônia Leopoldina",AL,-8.9089,-35.7250,140
2702207,1598,"Coqueiro Seco",AL,-9.6383,-35.8031,31
2702306,1652,Coruripe,AL,-10.1256,-36.1756,16
2702355,1666,Craíbas,AL,-9.6181,-36.7681,252
2702405,1755,"Delmiro Gouveia",AL,-9.3886,-37.9992,256
2702504,1805,"Dois Riachos",AL,-9.3925,-37.1006,245
2702553,1936,"Estrela de Alagoas",AL,-9.3903,-36.7600,0
2702603,1977,"Feira Grande",AL,-9.9003,-36.6775,220
2702702,1986,"Feliz Deserto",AL,-10.2919,-36.3061,6
2702801,2009,Flexeiras,AL,-9.1975,-35.7808,78
2702900,2122,"Girau do Ponciano",AL,-9.8842,-36.8289,244
2703007,2295,Ibateguara,AL,-8.9725,-35.9394,505
2703106,2349,Igaci,AL,-9.5369,-36.6336,240
2703205,2363,"Igreja Nova",AL,-10.1253,-36.6619,14
2703304,2418,Inhapi,AL,-9.2214,-37.7486,410
2703403,2678,"Jacaré dos Homens",AL,-9.6356,-37.2047,135
2703502,2689,Jacuípe,AL,-8.8417,-35.4600,74
2703601,2726,Japaratinga,AL,-9.0883,-35.2583,5
2703700,2741,Jaramataia,AL,-9.6594,-37.0019,164
2703759,5795,"Jequiá da Praia",AL,-9.9200,-35.9200,10
2703809,2802,"Joaquim Gomes",AL,-9.1333,-35.7483,104
2703908,2840,Jundiá,AL,-8.9347,-35.5736,94
2704005,2843,Junqueiro,AL,-9.9253,-36.4758,175
2704104,2882,"Lagoa da Canoa",AL,-9.8297,-36.7378,283
2704203,2977,"Limoeiro de Anadia",AL,-9.7406,-36.5028,140
2704302,233,Maceió,AL,-9.6658,-35.7353,16
2704401,3063,"Major Isidoro",AL,-9.5322,-36.9850,182
2704906,3104,"Mar Vermelho",AL,-9.4475,-36.3881,542
2704500,3116,Maragogi,AL,-9.0122,-35.2225,5
2704609,3128,Maravilha,AL,-9.2356,-37.3500,362
2704708,3140,"Marechal Deodoro",AL,-9.7103,-35.8950,31
2704807,3153,Maribondo,AL,-9.5772,-36.3053,157
2705002,3189,"Mata Grande",AL,-9.1175,-37.7322,633
2705101,3217,"Matriz de Camaragibe",AL,-9.1517,-35.5333,16
2705200,3246,Messias,AL,-9.3833,-35.8417,148
2705309,3261,"Minador do Negrão",AL,-9.3053,-36.8647,270
2705408,3355,Monteirópolis,AL,-9.6028,-37.2483,228
2705507,3418,Murici,AL,-9.3067,-35.9433,82
2705606,3600,"Novo Lino",AL,-8.9150,-35.6467,146
2705705,3625,"Olho D'Água das Flores",AL,-9.5361,-37.2939,286
2705804,3627,"Olho D'Água do Casado",AL,-9.5019,-37.8339,230
2705903,3629,"Olho D'Água Grande",AL,-10.0583,-36.8167,118
2706000,3641,Olivença,AL,-9.5186,-37.1906,231
2706109,3669,"Ouro Branco",AL,-9.1667,-37.3567,380
2706208,3706,Palestina,AL,-9.6719,-37.3292,160
2706307,3725,"Palmeira dos Índios",AL,-9.4072,-36.6275,342
2706406,3747,"Pão de Açúcar",AL,-9.7483,-37.4367,19
2706422,3799,Pariconha,AL,-9.2528,-38.0047,0
2706448,3802,Paripueira,AL,-9.4650,-35.5517,0
2706505,3822,"Passo de Camaragibe",AL,-9.2383,-35.4933,4
2706604,3859,"Paulo Jacinto",AL,-9.3661,-36.3697,292
2706703,3919,Penedo,AL,-10.2903,-36.5864,27
2706802,3947,Piaçabuçu,AL,-10.4056,-36.4344,3
2706901,3965,Pilar,AL,-9.5972,-35.9567,13
2707008,3978,Pindoba,AL,-9.4753,-36.2900,310
2707107,4022,Piranhas,AL,-9.6236,-37.7567,88
2707206,4072,"Poço das Trincheiras",AL,-9.3125,-37.2856,292
2707305,4133,"Porto Calvo",AL,-9.0450,-35.3983,54
2707404,4136,"Porto de Pedras",AL,-9.1583,-35.2950,22
2707503,4151,"Porto Real do Colégio",AL,-10.1858,-36.8400,10
2707602,4245,Quebrangulo,AL,-9.3189,-36.4711,366
2707701,4400,"Rio Largo",AL,-9.4783,-35.8533,39
2707800,4458,Roteiro,AL,-9.8328,-35.9778,32
2707909,4593,"Santa Luzia do Norte",AL,-9.6033,-35.8225,32
2708006,4676,"Santana do Ipanema",AL,-9.3783,-37.2453,250
2708105,4683,"Santana do Mundaú",AL,-9.1681,-36.2222,221
2708204,4768,"São Brás",AL,-10.1278,-36.9006,25
2708303,4915,"São José da Laje",AL,-9.0097,-36.0583,256
2708402,4918,"São José da Tapera",AL,-9.5583,-37.3811,255
2708501,4981,"São Luís do Quitunde",AL,-9.3183,-35.5611,4
2708600,5015,"São Miguel dos Campos",AL,-9.7811,-36.0936,12
2708709,5016,"São Miguel dos Milagres",AL,-9.2656,-35.3731,1
2708808,5050,"São Sebastião",AL,-9.9336,-36.5542,201
2708907,5106,Satuba,AL,-9.5633,-35.8244,6
2708956,5139,"Senador Rui Palmeira",AL,-9.4664,-37.4569,352
2709004,5307,"Tanque D'Arca",AL,-9.5319,-36.4328,212
2709103,5330,Taquarana,AL,-9.6450,-36.4972,159
2709152,5369,"Teotônio Vilela",AL,-9.9053,-36.3528,156
2709202,5430,Traipu,AL,-9.9706,-37.0033,10
2709301,5543,"União dos Palmares",AL,-9.1628,-36.0319,155
2709400,5653,Viçosa,AL,-9.3714,-36.2408,210
1300029,414,Alvarães,AM,-3.2208,-64.8042,75
1300060,439,Amaturá,AM,-3.3642,-68.1978,58
1300086,460,Anamã,AM,-3.5797,-61.4042,28
1300102,496,Anori,AM,-3.7728,-61.6442,120
1300144,531,Apuí,AM,-7.1972,-59.8914,135
1300201,660,"Atalaia do Norte",AM,-4.3722,-70.1919,65
1300300,678,Autazes,AM,-3.5797,-59.1306,36
1300409,743,Barcelos,AM,-0.9747,-62.9242,47
1300508,783,Barreirinha,AM,-2.7933,-57.0700,19
1300607,839,"Benjamin Constant",AM,-4.3831,-70.0311,65
1300631,854,Beruri,AM,-3.8983,-61.3731,35
1300680,884,"Boa Vista do Ramos",AM,-2.9697,-57.5903,32
1300706,888,"Boca do Acre",AM,-8.7522,-67.3978,116
1300805,960,Borba,AM,-4.3878,-59.5939,45
1300839,1047,Caapiranga,AM,-3.3275,-61.2089,32
1300904,1274,Canutama,AM,-6.5339,-64.3831,55
1301001,1325,Carauari,AM,-4.8828,-66.8958,87
1301100,1336,Careiro,AM,-3.7681,-60.3692,27
1301159,1337,"Careiro da Várzea",AM,-3.2003,-59.8119,25
1301209,1512,Coari,AM,-4.0850,-63.1414,10
1301308,1520,Codajás,AM,-3.8367,-62.0569,47
1301407,1861,Eirunepé,AM,-6.6603,-69.8736,124
1301506,1895,Envira,AM,-7.4333,-70.0233,135
1301605,2032,"Fonte Boa",AM,-2.5139,-66.0917,62
1301654,2195,Guajará,AM,-7.5458,-72.5836,0
1301704,2281,Humaitá,AM,-7.5061,-63.0208,58
1301803,2447,Ipixuna,AM,-7.0506,-71.6947,190
1301852,2473,Iranduba,AM,-3.2847,-60.1861,60
1301902,2508,Itacoatiara,AM,-3.1431,-58.4442,26
1301951,2545,Itamarati,AM,-6.4250,-68.2533,60
1302009,2587,Itapiranga,AM,-2.7489,-58.0219,43
1302108,2734,Japurá,AM,-1.8261,-66.5989,50
1302207,2855,Juruá,AM,-3.4811,-66.0689,55
1302306,2865,Jutaí,AM,-2.7467,-66.7667,48
1302405,2869,Lábrea,AM,-7.2586,-64.7981,75
1302504,3078,Manacapuru,AM,-3.2997,-60.6206,60
1302553,3080,Manaquiri,AM,-3.4281,-60.4594,48
1302603,234,Manaus,AM,-3.1019,-60.0250,92
1302702,3093,Manicoré,AM,-5.8092,-61.3003,45
1302801,3106,Maraã,AM,-1.8561,-65.5811,50
1302900,3223,Maués,AM,-3.3836,-57.7186,25
1303007,3453,Nhamundá,AM,-2.1861,-56.7131,25
1303106,3548,"Nova Olinda do Norte",AM,-3.8881,-59.0942,32
1303205,3583,"Novo Airão",AM,-2.6214,-60.9442,45
1303304,3585,"Novo Aripuanã",AM,-5.1206,-60.3797,20
1303403,3800,Parintins,AM,-2.6283,-56.7358,27
1303502,3845,Pauini,AM,-7.7136,-66.9764,101
1303536,4197,"Presidente Figueiredo",AM,-2.0344,-60.0250,122
1303569,4414,"Rio Preto da Eva",AM,-2.6994,-59.6997,47
1303601,4581,"Santa Isabel do Rio Negro",AM,-0.4139,-65.0192,60
1303700,4723,"Santo Antônio do Içá",AM,-3.1022,-67.9397,91
1303809,4828,"São Gabriel da Cachoeira",AM,-0.1303,-67.0892,132
1303908,5020,"São Paulo de Olivença",AM,-3.3783,-68.8725,102
1303957,5068,"São Sebastião do Uatumã",AM,-2.5719,-57.8708,24
1304005,5214,Silves,AM,-2.8389,-58.2092,46
1304062,5272,Tabatinga,AM,-4.2525,-69.9381,60
1304104,5312,Tapauá,AM,-5.6283,-63.1833,54
1304203,5350,Tefé,AM,-3.3542,-64.7114,75
1304237,5419,Tonantins,AM,-2.8731,-67.8022,55
1304260,5505,Uarini,AM,-2.9900,-65.1083,60
1304302,5560,Urucará,AM,-2.5364,-57.7600,26
1304401,5564,Urucurituba,AM,-3.1308,-58.1550,40
1600105,430,Amapá,AP,2.0533,-50.7931,8
,5889,Bailique,AP,0.9667,-50.0767,15
1600204,1135,Calçoene,AP,2.4975,-50.9486,12
,5891,Cunani,AP,2.8600,-51.1239,60
1600212,1743,Cutias,AP,0.9861,-50.8022,0
1600238,1998,"Ferreira Gomes",AP,0.8583,-51.1800,50
1600253,2629,Itaubal,AP,0.7117,-50.8000,27
1600279,2943,"Laranjal do Jari",AP,-1.1200,-52.0000,22
,5890,Lourenço,AP,2.3075,-51.6358,305
1600303,232,Macapá,AP,0.0389,-51.0664,16
1600402,3229,Mazagão,AP,-0.1150,-51.2894,60
,5893,"Mazagão Velho",AP,-0.2167,-51.4167,60
1600501,3620,Oiapoque,AP,3.8431,-51.8350,10
1600154,3875,"Pedra Branca do Amapari",AP,0.7781,-51.9436,0
1600535,4145,"Porto Grande",AP,0.7133,-51.4133,60
1600550,4173,Pracuúba,AP,1.7433,-50.7914,0
1600600,4662,Santana,AP,-0.0583,-51.1817,15
1600055,5165,"Serra do Navio",AP,0.8956,-52.0022,0
,5888,Sucuriju,AP,1.6667,-49.9444,5
1600709,5341,Tartarugalzinho,AP,1.5056,-50.9119,13
,5892,"Vila Velha",AP,3.2167,-51.2292,11
1600808,5697,"Vitória do Jari",AP,-0.9172,-52.4081,0
2900108,253,Abaíra,BA,-13.2497,-41.6636,641
2900207,254,Abaré,BA,-8.7203,-39.1139,318
2900306,264,Acajutiba,BA,-11.6622,-38.0172,162
2900355,280,Adustina,BA,-10.5333,-38.1000,300
2900405,302,"Água Fria",BA,-11.8667,-38.7667,312
2900603,328,Aiquara,BA,-14.1294,-39.8878,198
2900702,338,Alagoinhas,BA,-12.1356,-38.4192,132
2900801,345,Alcobaça,BA,-17.5194,-39.1956,9
2900900,365,Almadina,BA,-14.7053,-39.6372,279
2901007,438,Amargosa,BA,-13.0303,-39.6047,400
2901106,440,"Amélia Rodrigues",BA,-12.3917,-38.7567,217
2901155,441,"América Dourada",BA,-11.4553,-41.4361,666
2901205,455,Anagé,BA,-14.6122,-41.1356,384
2901304,470,Andaraí,BA,-12.8072,-41.3314,405
2901353,472,Andorinha,BA,-10.3447,-39.8356,428
2901403,482,Angical,BA,-12.0069,-44.6944,470
2901502,487,Anguera,BA,-12.1511,-39.2464,235
2901601,498,Antas,BA,-10.4000,-38.3333,510
2901700,503,"Antônio Cardoso",BA,-12.4353,-39.1197,191
2901809,507,"Antônio Gonçalves",BA,-10.5728,-40.2753,472
2901908,527,Aporá,BA,-11.6603,-38.0814,186
2901957,529,Apuarema,BA,-13.8564,-39.7439,278
2902054,540,Araças,BA,-12.2111,-38.2025,145
2902005,542,Aracatu,BA,-14.4275,-41.4619,740
2902104,544,Araci,BA,-11.3333,-38.9667,272
2902203,567,Aramari,BA,-12.0817,-38.4992,394
2902252,596,Arataca,BA,-15.2633,-39.4144,152
2902302,599,Aratuípe,BA,-13.0789,-39.0017,36
,5866,"Arraial d´Ajuda",BA,-16.4676,-39.0668,1
2902401,671,"Aurelino Leal",BA,-14.3167,-39.3272,52
2902500,698,Baianópolis,BA,-12.3064,-44.5347,667
2902609,700,"Baixa Grande",BA,-11.9597,-40.1681,369
2902658,726,Banzaê,BA,-10.5769,-38.6147,340
2902708,745,Barra,BA,-11.0894,-43.1417,406
2902807,748,"Barra da Estiva",BA,-13.6261,-41.3269,1026
2902906,759,"Barra do Choça",BA,-14.8811,-40.5794,847
2903003,764,"Barra do Mendes",BA,-11.8100,-42.0586,715
2903102,770,"Barra do Rocha",BA,-14.2106,-39.6019,142
,5869,"Barra Grande",BA,-13.9018,-38.9352,2
2903201,781,Barreiras,BA,-12.1528,-44.9900,452
2903235,789,"Barro Alto",BA,-11.7608,-41.9117,705
2903300,792,"Barro Preto",BA,-14.8097,-39.4714,100
2903276,5793,Barrocas,BA,-11.5200,-39.0700,350
2903409,827,Belmonte,BA,-15.8631,-38.8828,8
2903508,829,"Belo Campo",BA,-15.0383,-41.2597,819
2903607,866,Biritinga,BA,-11.6167,-38.8000,249
2903706,875,"Boa Nova",BA,-14.3625,-40.2075,726
2903805,886,"Boa Vista do Tupim",BA,-12.6603,-40.6092,317
2903904,913,"Bom Jesus da Lapa",BA,-13.2550,-43.4181,436
2903953,915,"Bom Jesus da Serra",BA,-14.3736,-40.5053,600
2904001,945,Boninal,BA,-12.7017,-41.8275,955
2904050,948,Bonito,BA,-11.9694,-41.2658,990
2904100,957,Boquira,BA,-12.8231,-42.7306,641
2904209,970,Botuporã,BA,-13.3817,-42.5225,685
2904308,1008,Brejões,BA,-13.1044,-39.7958,611
2904407,1009,Brejolândia,BA,-12.4831,-43.9664,542
2904506,1016,"Brotas de Macaúbas",BA,-11.9989,-42.6258,813
2904605,1018,Brumado,BA,-14.2036,-41.6653,422
2904704,1024,Buerarema,BA,-14.9594,-39.2997,107
2904753,1041,Buritirama,BA,-10.7078,-43.6306,492
2904803,1050,Caatiba,BA,-14.9767,-40.4075,307
2904852,1052,"Cabaceiras do Paraguaçu",BA,-12.5356,-39.1908,210
2904902,1070,Cachoeira,BA,-12.6183,-38.9558,5
2905008,1097,Caculé,BA,-14.5033,-42.2222,587
2905107,1098,Caém,BA,-11.0906,-40.4353,472
2905156,1100,Caetanos,BA,-14.3375,-40.9086,455
2905206,1103,Caetité,BA,-14.0694,-42.4750,824
2905305,1104,Cafarnaum,BA,-11.6936,-41.4683,770
2905404,1120,Cairu,BA,-13.4869,-39.0439,19
2905503,1140,"Caldeirão Grande",BA,-11.0200,-40.3028,492
2905602,1145,Camacan,BA,-15.4192,-39.4958,180
2905701,1146,Camaçari,BA,-12.6975,-38.3242,36
2905800,1149,Camamu,BA,-13.9447,-39.1039,40
2905909,1189,"Campo Alegre de Lourdes",BA,-9.5156,-43.0111,477
2906006,1201,"Campo Formoso",BA,-10.5075,-40.3214,556
2906105,1234,Canápolis,BA,-13.0697,-44.2022,680
2906204,1236,Canarana,BA,-11.6847,-41.7689,691
2906303,1240,Canavieiras,BA,-15.6750,-38.9472,4
2906402,1241,Candeal,BA,-11.8081,-39.1192,240
2906501,1242,Candeias,BA,-12.6678,-38.5506,97
2906600,1246,Candiba,BA,-14.4108,-42.8672,578
2906709,1252,"Cândido Sales",BA,-15.5050,-41.2392,627
2906808,1266,Cansanção,BA,-10.6672,-39.4992,395
2906824,1273,Canudos,BA,-9.8967,-39.0264,402
2906857,1286,"Capela do Alto Alegre",BA,-11.6681,-39.8378,412
2906873,1292,"Capim Grosso",BA,-11.3811,-40.0128,416
2906899,1317,Caraíbas,BA,-14.7258,-41.2592,401
,5868,Caraíva,BA,-16.8081,-39.1478,6
2906907,1329,Caravelas,BA,-17.7319,-39.2658,10
2907004,1332,"Cardeal da Silva",BA,-11.9417,-37.9486,60
2907103,1341,Carinhanha,BA,-14.3047,-43.7650,440
2907202,1383,"Casa Nova",BA,-9.1619,-40.9708,397
2907301,1404,"Castro Alves",BA,-12.7656,-39.4283,278
2907400,1416,Catolândia,BA,-12.3181,-44.8611,650
2907509,1418,Catu,BA,-12.3531,-38.3789,100
2907558,1423,Caturama,BA,-13.3294,-42.2906,591
2907608,1444,Central,BA,-11.1356,-42.1128,698
2907707,1492,Chorrochó,BA,-8.9797,-39.0964,350
2907806,1497,"Cícero Dantas",BA,-10.6000,-38.3833,436
2907905,1502,Cipó,BA,-11.0997,-38.5136,132
2908002,1511,Coaraci,BA,-14.6408,-39.5511,195
2908101,1519,Cocos,BA,-14.1839,-44.5344,559
2908200,1553,"Conceição da Feira",BA,-12.5058,-38.9986,227
2908309,1558,"Conceição do Almeida",BA,-12.7794,-39.1700,216
2908408,1562,"Conceição do Coité",BA,-11.5639,-39.2828,440
2908507,1563,"Conceição do Jacuípe",BA,-12.3167,-38.7667,219
2908606,1577,Conde,BA,-11.8136,-37.6106,12
2908705,1578,Condeúba,BA,-14.8953,-41.9686,680
2908804,1596,"Contendas do Sincorá",BA,-13.7628,-41.0411,291
2908903,1601,"Coração de Maria",BA,-12.2333,-38.7500,240
2909000,1605,Cordeiros,BA,-15.0386,-41.9347,710
2909109,1612,Coribe,BA,-13.8292,-44.4544,657
2909208,1626,"Coronel João Sá",BA,-10.2842,-37.9264,200
2909307,1643,Correntina,BA,-13.3433,-44.6367,561
,5867,"Costa do Sauípe",BA,-12.3841,-37.8016,2
2909406,1657,Cotegipe,BA,-12.0283,-44.2578,472
2909505,1670,Cravolândia,BA,-13.3586,-39.8150,477
2909604,1673,Crisópolis,BA,-11.5106,-38.1500,149
2909703,1688,Cristópolis,BA,-12.2336,-44.4208,688
2909802,1696,"Cruz das Almas",BA,-12.6700,-39.1019,220
,5871,Cumuruxatiba,BA,-17.1106,-39.1822,5
2909901,1725,Curaçá,BA,-8.9903,-39.9094,330
2910008,1748,"Dário Meira",BA,-14.4364,-39.9078,208
2910057,1777,"Dias D'Ávila",BA,-12.6125,-38.2969,35
2910107,1809,"Dom Basílio",BA,-13.7603,-41.7714,440
2910206,1817,"Dom Macedo Costa",BA,-12.9050,-39.1925,192
2910305,1870,"Elísio Medrado",BA,-12.9464,-39.5217,390
2910404,1879,Encruzilhada,BA,-15.5314,-40.9094,650
2910503,1890,"Entre Rios",BA,-11.9419,-38.0844,162
2900504,1901,"Érico Cardoso",BA,-13.4178,-42.1403,688
2910602,1925,Esplanada,BA,-11.7961,-37.9450,142
2910701,1943,"Euclides da Cunha",BA,-10.5075,-39.0158,472
2910727,1947,Eunápolis,BA,-16.3775,-39.5803,189
2910750,1964,Fátima,BA,-10.6000,-38.2167,100
2910776,1975,"Feira da Mata",BA,-14.2128,-44.2811,40
2910800,1976,"Feira de Santana",BA,-12.2667,-38.9667,234
2910859,2006,Filadélfia,BA,-10.7428,-40.1319,424
2910909,2007,"Firmino Alves",BA,-14.9853,-39.9236,353
2911006,2022,"Floresta Azul",BA,-14.8600,-39.6597,186
2911105,2039,"Formosa do Rio Preto",BA,-11.0483,-45.1931,490
2911204,2095,Gandu,BA,-13.7439,-39.4867,164
2911253,2108,Gavião,BA,-11.4706,-39.7839,312
2911303,2118,"Gentio do Ouro",BA,-11.4289,-42.5028,1098
2911402,2126,Glória,BA,-9.3381,-38.2547,250
2911501,2150,Gongogi,BA,-14.3222,-39.4647,115
2911600,2161,"Governador Mangabeira",BA,-12.6019,-39.0433,204
2911659,2197,Guajeru,BA,-14.5472,-41.9403,628
2911709,2200,Guanambi,BA,-14.2233,-42.7814,530
2911808,2237,Guaratinga,BA,-16.5839,-39.7828,200
2911857,2266,Heliópolis,BA,-10.6833,-38.2861,328
2911907,2287,Iaçu,BA,-12.7672,-40.2117,242
2912004,2305,Ibiassucê,BA,-14.2594,-42.2569,574
2912103,2306,Ibicaraí,BA,-14.8650,-39.5875,162
2912202,2308,Ibicoara,BA,-13.4106,-41.2847,1027
2912301,2309,Ibicuí,BA,-14.8417,-39.9867,365
2912400,2312,Ibipeba,BA,-11.6408,-42.0111,682
2912509,2313,Ibipitanga,BA,-12.8822,-42.4858,492
2914307,2315,Ibiquera,BA,-12.6511,-40.9336,584
2912707,2323,Ibirapitanga,BA,-14.1642,-39.3736,113
2912806,2324,Ibirapuã,BA,-17.6878,-40.1092,190
2912905,2327,Ibirataia,BA,-14.0669,-39.6406,141
2913002,2330,Ibitiara,BA,-12.6522,-42.2178,889
2913101,2333,Ibititá,BA,-11.5472,-41.9775,782
2913200,2337,Ibotirama,BA,-12.1853,-43.2206,419
2913309,2344,Ichu,BA,-11.7486,-39.1922,280
2913408,2350,Igaporã,BA,-13.7733,-42.7142,765
2913457,2362,Igrapiúna,BA,-13.8264,-39.1422,48
2913507,2366,Iguaí,BA,-14.7564,-40.0892,352
,5870,"Ilha de Comandatuba",BA,-15.3507,-38.9853,2
2913606,2381,Ilhéus,BA,-14.7889,-39.0494,52
2913705,2416,Inhambupe,BA,-11.7844,-38.3531,179
2913804,2436,Ipecaetá,BA,-12.3000,-39.3075,189
2913903,2440,Ipiaú,BA,-14.1372,-39.7339,135
2914000,2443,Ipirá,BA,-12.1583,-39.7372,328
2914109,2463,Ipupiara,BA,-11.8203,-42.6142,731
2914208,2471,Irajuba,BA,-13.2514,-40.0844,542
2912608,2472,Iramaia,BA,-13.2856,-40.9511,607
2914406,2477,Iraquara,BA,-12.2486,-41.6194,687
2914505,2478,Irará,BA,-12.0500,-38.7667,283
2914604,2482,Irecê,BA,-11.3042,-41.8558,721
2914653,2494,Itabela,BA,-16.5750,-39.5533,130
2914703,2496,Itaberaba,BA,-12.5275,-40.3069,265
2914802,2503,Itabuna,BA,-14.7856,-39.2803,54
2914901,2507,Itacaré,BA,-14.2775,-38.9967,29
2915007,2511,Itaeté,BA,-12.9864,-40.9725,321
2915106,2512,Itagi,BA,-14.1628,-40.0061,258
2915205,2513,Itagibá,BA,-14.2836,-39.8428,185
2915304,2514,Itagimirim,BA,-16.0867,-39.6144,176
2915353,2516,"Itaguaçu da Bahia",BA,-11.0117,-42.3994,44
2915403,2538,"Itaju do Colônia",BA,-15.1425,-39.7244,167
2915502,2540,Itajuípe,BA,-14.6781,-39.3750,101
2915601,2543,Itamaraju,BA,-17.0392,-39.5311,112
2915700,2547,Itamari,BA,-13.7781,-39.6836,232
2915809,2551,Itambé,BA,-15.2450,-40.6244,346
2915908,2556,Itanagra,BA,-12.2631,-38.0417,44
2916005,2559,Itanhém,BA,-17.1664,-40.3300,210
2916104,2567,Itaparica,BA,-12.8883,-38.6786,15
2916203,2568,Itapé,BA,-14.8983,-39.4211,40
2916302,2569,Itapebi,BA,-15.9508,-39.5339,177
2916401,2579,Itapetinga,BA,-15.2489,-40.2478,279
2916500,2584,Itapicuru,BA,-11.3167,-38.2333,155
2916609,2593,Itapitanga,BA,-14.4228,-39.5650,152
2916708,2608,Itaquara,BA,-13.4508,-39.9411,578
2916807,2613,Itarantim,BA,-15.6597,-40.0656,259
2916856,2622,Itatim,BA,-12.7119,-39.6981,260
2916906,2640,Itiruçu,BA,-13.5317,-40.1503,820
2917003,2641,Itiúba,BA,-10.6917,-39.8536,377
2917102,2643,Itororó,BA,-15.1169,-40.0703,237
2917201,2645,Ituaçu,BA,-13.8133,-41.2967,520
2917300,2646,Ituberá,BA,-13.7322,-39.1492,27
2917334,2657,Iuiú,BA,-14.4139,-43.5544,490
2917359,2669,Jaborandi,BA,-13.6194,-44.4328,448
2917409,2676,Jacaraci,BA,-14.8497,-42.4333,900
2917508,2686,Jacobina,BA,-11.1806,-40.5183,463
2917607,2695,Jaguaquara,BA,-13.5306,-39.9708,667
2917706,2698,Jaguarari,BA,-10.2639,-40.1958,662
2917805,2705,Jaguaripe,BA,-13.1133,-38.8956,11
2917904,2719,Jandaíra,BA,-11.5642,-37.7844,146
2918001,2771,Jequié,BA,-13.8575,-40.0836,215
2918100,2775,Jeremoabo,BA,-10.0750,-38.4808,275
2918209,2785,Jiquiriçá,BA,-13.2567,-39.5722,342
2918308,2786,Jitaúna,BA,-14.0189,-39.8889,163
2918357,2795,"João Dourado",BA,-11.3497,-41.6644,815
2918407,2825,Juazeiro,BA,-9.4117,-40.4986,368
2918456,2830,Jucuruçu,BA,-16.8428,-40.1589,365
2918506,2860,Jussara,BA,-11.0469,-41.9694,620
2918555,2863,Jussari,BA,-15.1914,-39.4953,196
2918605,2864,Jussiape,BA,-13.5167,-41.5925,538
2918704,2873,"Lafaiete Coutinho",BA,-13.6558,-40.2125,558
2918753,2908,"Lagoa Real",BA,-14.0347,-42.1422,525
2918803,2919,Laje,BA,-13.1822,-39.4250,190
2918902,2926,Lajedão,BA,-17.6136,-40.3447,290
2919009,2927,Lajedinho,BA,-12.3558,-40.9056,530
2919058,2929,"Lajedo do Tabocal",BA,-13.4750,-40.2231,875
2919108,2933,Lamarão,BA,-11.7833,-38.9000,315
2919157,2939,Lapão,BA,-11.3833,-41.8319,775
2919207,2950,"Lauro de Freitas",BA,-12.8944,-38.3272,30
2919306,2962,Lençóis,BA,-12.5631,-41.3900,394
2919405,2970,"Licínio de Almeida",BA,-14.6822,-42.5075,852
2919504,5822,"Livramento de Nossa Senhora",BA,-13.6431,-41.8406,475
,2988,"Livramento do Brumado",BA,-13.6431,-41.8406,475
2919553,5794,"Luís Eduardo Magalhães",BA,-12.1800,-50.0300,450
2919603,3027,Macajuba,BA,-12.1361,-40.3600,353
2919702,3031,Macarani,BA,-15.5683,-40.4231,324
2919801,3035,Macaúbas,BA,-13.0194,-42.6986,697
2919900,3044,Macururé,BA,-9.1675,-39.0575,357
2919926,3047,"Madre de Deus",BA,-12.7408,-38.6208,5
2919959,3051,Maetinga,BA,-14.6633,-41.4917,600
2920007,3057,Maiquinique,BA,-15.6211,-40.2661,309
2920106,3058,Mairi,BA,-11.7114,-40.1489,468
2920205,3067,Malhada,BA,-14.3361,-43.7736,433
2920304,3068,"Malhada de Pedras",BA,-14.3881,-41.8792,515
2920403,3098,"Manoel Vitorino",BA,-14.1453,-40.2425,292
2920452,3099,Mansidão,BA,-10.7164,-44.0344,519
2920502,3115,Maracás,BA,-13.4411,-40.4308,964
2920601,3117,Maragogipe,BA,-12.7778,-38.9194,39
2920700,3127,Maraú,BA,-14.1031,-39.0147,36
2920809,3135,"Marcionílio Souza",BA,-13.0031,-40.5306,292
2920908,3182,Mascote,BA,-15.5631,-39.3025,43
2921005,3188,"Mata de São João",BA,-12.5303,-38.2992,32
2921054,3202,Matina,BA,-13.9094,-42.8494,509
2921104,3231,"Medeiros Neto",BA,-17.3739,-40.2206,185
2921203,3249,"Miguel Calmon",BA,-11.4289,-40.5950,532
2921302,3254,Milagres,BA,-12.8700,-39.8589,419
2921401,3283,Mirangaba,BA,-10.9544,-40.5758,829
2921450,3285,Mirante,BA,-14.2419,-40.7783,420
2921500,3349,"Monte Santo",BA,-10.4378,-39.3328,489
2921609,3370,Morpará,BA,-11.5586,-43.2808,405
,5864,"Morro de São Paulo",BA,-13.4676,-39.0334,10
2921708,3380,"Morro do Chapéu",BA,-11.5500,-41.1561,1011
2921807,3387,Mortugaba,BA,-15.0233,-42.3681,384
2921906,3398,Mucugê,BA,-13.0053,-41.3708,983
2922003,3400,Mucuri,BA,-18.0864,-39.5508,7
2922052,3406,"Mulungu do Morro",BA,-11.9661,-41.6389,850
2922102,3407,"Mundo Novo",BA,-11.8589,-40.4725,604
2922201,3412,"Muniz Ferreira",BA,-13.0028,-39.1100,86
2922250,3414,"Muquém de São Francisco",BA,-12.1986,-43.8328,560
2922300,3421,Muritiba,BA,-12.6264,-38.9900,213
2922409,3423,Mutuípe,BA,-13.2286,-39.5047,271
2922508,3442,Nazaré,BA,-13.0350,-39.0144,39
2922607,3456,"Nilo Peçanha",BA,-13.5994,-39.1069,20
2922656,3467,Nordestina,BA,-10.8225,-39.4269,370
2922706,3497,"Nova Canaã",BA,-14.7942,-40.1425,422
2922730,3513,"Nova Fátima",BA,-11.6072,-39.6319,298
2922755,3522,"Nova Ibiá",BA,-13.8100,-39.6256,292
2922805,3529,"Nova Itarana",BA,-13.0269,-40.0686,560
2922854,3558,"Nova Redenção",BA,-12.8186,-41.0711,415
2922904,3569,"Nova Soure",BA,-11.2333,-38.4833,169
2923001,3579,"Nova Viçosa",BA,-17.8919,-39.3719,11
2923035,3592,"Novo Horizonte",BA,-12.8083,-42.1678,835
2923050,3612,"Novo Triunfo",BA,-10.3222,-38.4083,460
2923100,3635,Olindina,BA,-11.3667,-38.3333,139
2923209,3639,"Oliveira dos Brejinhos",BA,-12.3169,-42.8961,550
2923308,3662,Ouriçangas,BA,-12.0167,-38.6167,327
2923357,3681,Ourolândia,BA,-10.9703,-41.0831,560
2923407,3719,"Palmas de Monte Alto",BA,-14.2672,-43.1619,802
2923506,3729,Palmeiras,BA,-12.5289,-41.5589,697
2923605,3770,Paramirim,BA,-13.4425,-42.2389,654
2923704,3790,Paratinga,BA,-12.6906,-43.1842,425
2923803,3801,Paripiranga,BA,-10.6875,-37.8617,434
2923902,3840,"Pau Brasil",BA,-15.4642,-39.6511,169
2924009,3856,"Paulo Afonso",BA,-9.4061,-38.2147,243
2924058,3865,"Pé de Serra",BA,-11.8339,-39.6125,286
2924108,3886,Pedrão,BA,-12.1500,-38.6500,230
2924207,3897,"Pedro Alexandre",BA,-10.0136,-37.8942,356
2924306,3950,Piatã,BA,-13.1519,-41.7728,1268
2924405,3963,"Pilão Arcado",BA,-10.0031,-42.5044,394
2924504,3975,Pindaí,BA,-14.4925,-42.6872,610
2924603,3979,Pindobaçu,BA,-10.7417,-40.3608,448
2924652,3999,Pintadas,BA,-11.8125,-39.9086,300
2924678,4012,"Piraí do Norte",BA,-13.7619,-39.3789,148
2924702,4040,Piripá,BA,-14.9400,-41.7200,618
2924801,4042,Piritiba,BA,-11.7303,-40.5553,554
2924900,4056,Planaltino,BA,-13.2589,-40.3689,691
2925006,4057,Planalto,BA,-14.6697,-40.4711,943
2925105,4077,Poções,BA,-14.5297,-40.3653,760
2925204,4081,Pojuca,BA,-12.4306,-38.3278,60
2925253,4111,"Ponto Novo",BA,-10.8628,-40.1336,362
2925303,4154,"Porto Seguro",BA,-16.4497,-39.0647,49
2925402,4164,Potiraguá,BA,-15.5947,-39.8767,181
2925501,4174,Prado,BA,-17.3411,-39.2208,4
2925600,4195,"Presidente Dutra",BA,-11.2961,-41.9867,672
2925709,4199,"Presidente Jânio Quadros",BA,-14.6894,-41.6783,682
2925758,4213,"Presidente Tancredo Neves",BA,-13.4486,-39.4214,150
2925808,4249,Queimadas,BA,-10.9783,-39.6264,295
2925907,4257,Quijingue,BA,-10.7525,-39.2092,352
2925931,4269,Quixabeira,BA,-11.4117,-40.1283,420
2925956,4276,"Rafael Jambeiro",BA,-12.4083,-39.5014,238
2926004,4301,Remanso,BA,-9.6217,-42.0814,388
2926103,4314,Retirolândia,BA,-11.4950,-39.4256,325
2926202,4317,"Riachão das Neves",BA,-11.7461,-44.9100,495
2926301,4320,"Riachão do Jacuípe",BA,-11.8069,-39.3856,219
2926400,4327,"Riacho de Santana",BA,-13.6092,-42.9389,627
2926509,4339,"Ribeira do Amparo",BA,-11.0472,-38.4333,180
2926608,4341,"Ribeira do Pombal",BA,-10.8344,-38.5358,228
2926657,4349,"Ribeirão do Largo",BA,-15.4592,-40.7411,0
2926707,4382,"Rio de Contas",BA,-13.5789,-41.8114,999
2926806,4383,"Rio do Antônio",BA,-14.4114,-42.0756,598
2926905,4386,"Rio do Pires",BA,-13.1278,-42.2919,551
2927002,4416,"Rio Real",BA,-11.4847,-37.9328,169
2927101,4434,Rodelas,BA,-8.8456,-38.7667,295
2927200,4467,"Ruy Barbosa",BA,-12.2839,-40.4939,368
2927309,4489,"Salinas da Margarida",BA,-12.8711,-38.7644,6
2927408,242,Salvador,BA,-12.9711,-38.5108,8
2927507,4519,"Santa Bárbara",BA,-11.9583,-38.9750,293
2927606,4529,"Santa Brígida",BA,-9.7361,-38.1278,317
2927705,4539,"Santa Cruz Cabrália",BA,-16.2781,-39.0247,32
2927804,4543,"Santa Cruz da Vitória",BA,-14.9611,-39.8117,281
2927903,4575,"Santa Inês",BA,-13.2922,-39.8189,398
2928059,4590,"Santa Luzia",BA,-15.4294,-39.3342,195
2928109,4602,"Santa Maria da Vitória",BA,-13.3947,-44.1886,436
2928406,4622,"Santa Rita de Cássia",BA,-11.0086,-44.5194,440
2928505,4647,"Santa Teresinha",BA,-12.7719,-39.5233,227
2928000,4661,Santaluz,BA,-11.2558,-39.3747,370
2928208,4663,Santana,BA,-12.9833,-44.0511,526
2928307,4691,Santanópolis,BA,-12.0167,-38.8667,278
2928604,4698,"Santo Amaro",BA,-12.5467,-38.7119,42
2928703,4713,"Santo Antônio de Jesus",BA,-12.9689,-39.2614,213
2928802,4741,"Santo Estêvão",BA,-12.4303,-39.2514,242
2928901,4779,"São Desidério",BA,-12.3633,-44.9733,497
2928950,4781,"São Domingos",BA,-11.4656,-39.5261,0
2929107,4794,"São Felipe",BA,-12.8472,-39.0894,195
2929008,4796,"São Félix",BA,-12.6047,-38.9722,45
2929057,4800,"São Félix do Coribe",BA,-13.4006,-44.1947,40
2929206,4818,"São Francisco do Conde",BA,-12.6275,-38.6800,11
2929255,4826,"São Gabriel",BA,-11.2292,-41.9119,692
2929305,4845,"São Gonçalo dos Campos",BA,-12.4333,-38.9667,234
2929354,4920,"São José da Vitória",BA,-15.0844,-39.3392,180
2929370,4946,"São José do Jacuípe",BA,-11.5039,-40.0222,361
2929404,5000,"São Miguel das Matas",BA,-13.0478,-39.4556,293
2929503,5064,"São Sebastião do Passé",BA,-12.5125,-38.4953,37
2929602,5090,Sapeaçu,BA,-12.7275,-39.1819,226
2929701,5105,"Sátiro Dias",BA,-11.6000,-38.6000,213
2929750,5108,Saubara,BA,-12.7375,-38.7686,44
2929800,5111,Saúde,BA,-10.9411,-40.4189,542
2929909,5113,Seabra,BA,-12.4186,-41.7703,812
2930006,5117,"Sebastião Laranjeiras",BA,-14.5731,-42.9403,533
2930105,5143,"Senhor do Bonfim",BA,-10.4614,-40.1894,538
2930204,5148,"Sento Sé",BA,-9.7458,-41.8853,410
2930154,5166,"Serra do Ramalho",BA,-13.5625,-43.5967,0
2930303,5169,"Serra Dourada",BA,-12.7611,-43.9497,500
2930402,5173,"Serra Preta",BA,-12.1603,-39.3317,311
2930501,5185,Serrinha,BA,-11.6642,-39.0075,379
2930600,5189,Serrolândia,BA,-11.4158,-40.3017,478
2930709,5219,"Simões Filho",BA,-12.7844,-38.4039,52
2930758,5229,"Sítio do Mato",BA,-13.0847,-43.4653,428
2930766,5230,"Sítio do Quinto",BA,-10.3500,-38.2167,332
2930774,5234,Sobradinho,BA,-9.4553,-40.8233,0
2930808,5255,"Souto Soares",BA,-12.0886,-41.6378,620
2930907,5276,"Tabocas do Brejo Velho",BA,-12.7058,-44.0067,532
2931004,5306,Tanhaçu,BA,-14.0214,-41.2481,430
2931053,5309,"Tanque Novo",BA,-13.5464,-42.4914,835
2931103,5310,Tanquinho,BA,-11.9786,-39.1039,248
2931202,5317,Taperoá,BA,-13.5381,-39.0986,15
2931301,5323,Tapiramutá,BA,-11.8472,-40.7914,820
2931350,5352,"Teixeira de Freitas",BA,-17.5350,-39.7419,186
2931400,5364,"Teodoro Sampaio",BA,-12.2933,-38.6283,121
2931509,5366,Teofilândia,BA,-11.4886,-38.9978,430
2931608,5368,Teolândia,BA,-13.6017,-39.4914,192
2931707,5379,"Terra Nova",BA,-12.3917,-38.6250,720
,5865,Trancoso,BA,-16.5846,-39.0925,14
2931806,5436,Tremedal,BA,-14.9758,-41.4108,530
2931905,5468,Tucano,BA,-10.9631,-38.7867,209
2932002,5506,Uauá,BA,-9.8414,-39.4817,439
2932101,5509,Ubaíra,BA,-13.2681,-39.6628,324
2932200,5510,Ubaitaba,BA,-14.3125,-39.3233,68
2932309,5514,Ubatã,BA,-14.2139,-39.5228,109
2932408,5522,Uibaí,BA,-11.3369,-42.1325,582
2932457,5530,Umburanas,BA,-10.7328,-41.3264,738
2932507,5535,Una,BA,-15.2933,-39.0753,28
2932606,5549,Urandi,BA,-14.7714,-42.6550,637
2932705,5561,Uruçuca,BA,-14.5931,-39.2844,102
2932804,5572,Utinga,BA,-12.0817,-41.0944,530
2932903,5579,Valença,BA,-13.3703,-39.0731,39
2933000,5582,Valente,BA,-11.4122,-39.4619,358
2933059,5609,"Várzea da Roça",BA,-11.6067,-40.1372,459
2933109,5610,"Várzea do Poço",BA,-11.5292,-40.3203,462
2933158,5613,"Várzea Nova",BA,-11.2586,-40.9419,742
2933174,5615,Varzedo,BA,-12.9717,-39.3939,280
,5872,"Velha Boipeba",BA,-13.5808,-38.9297,3
2933208,5626,"Vera Cruz",BA,-12.9603,-38.6086,13
2933257,5635,Vereda,BA,-17.2225,-40.0850,100
2933307,5694,"Vitória da Conquista",BA,-14.8661,-40.8394,923
2933406,5706,Wagner,BA,-12.2869,-41.1683,460
2933455,5709,Wanderley,BA,-12.1200,-43.8875,583
2933505,5712,"Wenceslau Guimarães",BA,-13.6869,-39.4794,178
2933604,5723,Xique-Xique,BA,-10.8217,-42.7311,402
2300101,252,Abaiara,CE,-7.3589,-39.0456,409
2300150,266,Acarape,CE,-4.2242,-38.7083,80
2300200,267,Acaraú,CE,-2.8856,-40.1200,7
2300309,270,Acopiara,CE,-6.0953,-39.4525,317
2300408,329,Aiuaba,CE,-6.5736,-40.1236,466
2300507,342,Alcântaras,CE,-3.5889,-40.5456,656
2300606,381,Altaneira,CE,-7.0017,-39.7406,661
2300705,410,"Alto Santo",CE,-5.5208,-38.2717,79
2300754,447,Amontada,CE,-3.3617,-39.8317,108
2300804,501,"Antonina do Norte",CE,-6.7750,-39.9892,365
2300903,532,Apuiarés,CE,-3.9489,-39.4317,91
2301000,535,Aquiraz,CE,-3.9014,-38.3911,14
2301109,541,Aracati,CE,-4.5617,-37.7697,5
2301208,546,Aracoiaba,CE,-4.3711,-38.8142,107
2301257,588,Ararendá,CE,-4.7528,-40.8328,380
2301307,591,Araripe,CE,-7.2125,-40.0461,605
2301406,598,Aratuba,CE,-4.4183,-39.0450,838
2301505,630,Arneiroz,CE,-6.3236,-40.1606,337
2301604,650,Assaré,CE,-6.8744,-39.8750,442
2301703,674,Aurora,CE,-6.9425,-38.9675,267
2301802,702,Baixio,CE,-6.7300,-38.7169,279
2301851,716,Banabuiú,CE,-5.3097,-38.9206,170
2301901,738,Barbalha,CE,-7.3111,-39.3042,414
2301950,780,Barreira,CE,-4.2869,-38.6431,100
2302008,788,Barro,CE,-7.1767,-38.7817,362
2302057,794,Barroquinha,CE,-3.0189,-41.1361,25
2302107,804,Baturité,CE,-4.3286,-38.8847,171
2302206,808,Beberibe,CE,-4.1797,-38.1306,12
2302305,809,"Bela Cruz",CE,-3.0506,-40.1678,15
2302404,878,"Boa Viagem",CE,-5.1275,-39.7322,275
2302503,1007,"Brejo Santo",CE,-7.4933,-38.9872,381
2302602,1164,Camocim,CE,-2.9022,-40.8411,8
2302701,1225,"Campos Sales",CE,-7.0744,-40.3761,566
2302800,1261,Canindé,CE,-4.3589,-39.3117,148
,5894,"Canoa Quebrada",CE,-4.5291,-37.6927,2
2302909,1296,Capistrano,CE,-4.4700,-38.9014,159
,5895,Caponga,CE,-4.0414,-38.1981,15
2303006,1339,Caridade,CE,-4.2322,-39.1925,144
2303105,1343,Cariré,CE,-3.9506,-40.4733,158
2303204,1345,Caririaçu,CE,-7.0422,-39.2836,715
2303303,1346,Cariús,CE,-6.5372,-39.4967,240
2303402,1367,Carnaubal,CE,-4.1667,-40.9428,766
2303501,1386,Cascavel,CE,-4.1331,-38.2419,40
2303600,1410,Catarina,CE,-6.1308,-39.8775,589
2303659,1421,Catunda,CE,-4.6478,-40.2014,280
2303709,1426,Caucaia,CE,-3.7361,-38.6531,29
2303808,1436,Cedro,CE,-6.6067,-39.0622,250
2303907,1484,Chaval,CE,-3.0336,-41.2439,12
2303931,1490,Choró,CE,-4.8433,-39.1411,237
2303956,1491,Chorozinho,CE,-4.3003,-38.4978,48
2304004,1609,Coreaú,CE,-3.5333,-40.6567,72
2304103,1667,Crateús,CE,-5.1783,-40.6775,274
2304202,1668,Crato,CE,-7.2342,-39.4094,426
2304236,1691,Croatá,CE,-4.4000,-40.9106,571
2304251,1694,Cruz,CE,-2.9178,-40.1717,16
2304269,1760,"Deputado Irapuan Pinheiro",CE,-5.9169,-39.2678,288
2304277,1900,Ererê,CE,-6.0319,-38.3486,200
2304285,1948,Eusébio,CE,-3.8900,-38.4506,28
2304301,1958,"Farias Brito",CE,-6.9306,-39.5656,337
2304350,2044,Forquilha,CE,-3.7983,-40.2606,99
2304400,229,Fortaleza,CE,-3.7172,-38.5431,21
2304459,2050,Fortim,CE,-4.4519,-37.7972,15
2304509,2070,Frecheirinha,CE,-3.7600,-40.8164,120
2304608,2116,"General Sampaio",CE,-4.0528,-39.4544,95
2304657,2165,Graça,CE,-4.0461,-40.7528,179
2304707,2174,Granja,CE,-3.1203,-40.8261,10
2304806,2175,Granjeiro,CE,-6.8883,-39.2178,311
2304905,2181,Groaíras,CE,-3.9133,-40.3833,88
2304954,2194,Guaiúba,CE,-4.0397,-38.6372,62
2305001,2217,"Guaraciaba do Norte",CE,-4.1669,-40.7475,902
2305100,2221,Guaramiranga,CE,-4.2633,-38.9331,900
2305209,2271,Hidrolândia,CE,-4.4081,-40.4378,190
2305233,2276,Horizonte,CE,-4.0858,-38.6514,65
2305266,2293,Ibaretama,CE,-4.8042,-38.7533,190
2305308,2303,Ibiapina,CE,-3.9233,-40.8894,878
2305332,2310,Ibicuitinga,CE,-4.9739,-38.6389,200
2305357,2338,Icapuí,CE,-4.7131,-37.3553,5
,5896,Icaraí,CE,-3.0244,-39.6467,3
2305407,2345,Icó,CE,-6.4011,-38.8622,153
2305506,2372,Iguatu,CE,-6.3594,-39.2986,217
2305605,2403,Independência,CE,-5.3964,-40.3086,343
2305654,2431,Ipaporanga,CE,-4.9000,-40.7589,278
2305704,2434,Ipaumirim,CE,-6.7897,-38.7192,273
2305803,2454,Ipu,CE,-4.3222,-40.7108,247
2305902,2459,Ipueiras,CE,-4.5417,-40.7189,231
2306009,2465,Iracema,CE,-5.8119,-38.3058,131
2306108,2481,Irauçuba,CE,-3.7461,-39.7833,153
2306207,2525,Itaiçaba,CE,-4.6744,-37.8225,7
2306256,2531,Itaitinga,CE,-3.9694,-38.5281,60
2306306,2565,Itapagé,CE,-3.6867,-39.5861,262
2306405,2585,Itapipoca,CE,-3.4944,-39.5786,34
2306504,2594,Itapiúna,CE,-4.5644,-38.9222,133
2306553,2615,Itarema,CE,-2.9203,-39.9150,34
2306603,2624,Itatira,CE,-4.5289,-39.6222,794
2306702,2700,Jaguaretama,CE,-5.6128,-38.7669,120
2306801,2703,Jaguaribara,CE,-5.6581,-38.6200,92
2306900,2704,Jaguaribe,CE,-5.8906,-38.6219,123
2307007,2707,Jaguaruana,CE,-4.8339,-37.7811,12
2307106,2742,Jardim,CE,-7.5825,-39.2981,648
2307205,2759,Jati,CE,-7.6861,-39.0158,434
2307254,2784,"Jijoca de Jericoacoara",CE,-2.8950,-40.4492,100
2307304,2826,"Juazeiro do Norte",CE,-7.2131,-39.3153,377
2307403,2828,Jucás,CE,-6.5253,-39.5275,246
2307502,2955,"Lavras da Mangabeira",CE,-6.7533,-38.9644,239
2307601,2979,"Limoeiro do Norte",CE,-5.1456,-38.0981,30
2307635,3045,Madalena,CE,-4.8572,-39.5767,299
2307650,3114,Maracanaú,CE,-3.8767,-38.6256,40
2307700,3120,Maranguape,CE,-3.8908,-38.6856,80
2307809,3136,Marco,CE,-3.1239,-40.1467,20
2307908,3175,Martinópole,CE,-3.2256,-40.6967,85
2308005,3183,Massapê,CE,-3.5228,-40.3428,83
2308104,3226,Mauriti,CE,-7.3892,-38.7744,373
2308203,3243,Meruoca,CE,-3.5417,-40.4550,657
2308302,3253,Milagres,CE,-7.3133,-38.9456,334
2308351,3256,Milhã,CE,-5.6750,-39.1939,215
2308377,3278,Miraíma,CE,-3.5694,-39.9700,79
2308401,3296,"Missão Velha",CE,-7.2497,-39.1431,360
2308500,3309,Mombaça,CE,-5.7431,-39.6275,244
2308609,3319,"Monsenhor Tabosa",CE,-4.7894,-40.0633,687
2308708,3363,"Morada Nova",CE,-5.1067,-38.3725,52
2308807,3365,Moraújo,CE,-3.4667,-40.6806,66
2308906,3372,Morrinhos,CE,-3.2294,-40.1250,35
2309003,3397,Mucambo,CE,-3.9094,-40.7467,170
2309102,3404,Mulungu,CE,-4.3056,-38.9964,801
2309201,3544,"Nova Olinda",CE,-7.0917,-39.6806,446
2309300,3563,"Nova Russas",CE,-4.7067,-40.5631,240
2309409,3603,"Novo Oriente",CE,-5.5344,-40.7742,347
2309458,3616,Ocara,CE,-4.4908,-38.5967,100
2309508,3654,Orós,CE,-6.2444,-38.9136,184
2309607,3685,Pacajus,CE,-4.1725,-38.4606,60
2309706,3687,Pacatuba,CE,-3.9842,-38.6203,65
2309805,3690,Pacoti,CE,-4.2250,-38.9233,736
2309904,3691,Pacujá,CE,-3.9881,-40.6975,142
2310001,3710,Palhano,CE,-4.7453,-37.9589,14
2310100,3714,Palmácia,CE,-4.1503,-38.8464,425
2310209,3754,Paracuru,CE,-3.4100,-39.0306,19
2310258,3762,Paraipaba,CE,-3.4394,-39.1483,31
2310308,3769,Parambu,CE,-6.2111,-40.6944,478
2310407,3771,Paramoti,CE,-4.0969,-39.2394,90
,5898,Pecém,CE,-3.5481,-38.8297,200
2310506,3873,"Pedra Branca",CE,-5.4542,-39.7172,500
2310605,3915,Penaforte,CE,-7.8289,-39.0772,509
2310704,3921,Pentecoste,CE,-3.7928,-39.2703,45
2310803,3930,Pereiro,CE,-6.0417,-38.4597,560
2310852,3982,Pindoretama,CE,-4.0269,-38.3050,40
2310902,4004,"Piquet Carneiro",CE,-5.8036,-39.4178,251
2310951,4039,"Pires Ferreira",CE,-4.2467,-40.6453,196
2311009,4113,Poranga,CE,-4.7447,-40.9261,713
2311108,4121,Porteiras,CE,-7.5347,-39.1183,523
2311207,4162,Potengi,CE,-7.0906,-40.0267,560
2311231,4166,Potiretama,CE,-5.7239,-38.1561,150
,5897,"Praia de Lagoinha",CE,-3.3408,-39.1471,3
2311264,4266,Quiterianópolis,CE,-5.8431,-40.7008,430
2311306,4270,Quixadá,CE,-4.9714,-39.0153,189
2311355,4271,Quixelô,CE,-6.2544,-39.2019,195
2311405,4272,Quixeramobim,CE,-5.1992,-39.2928,191
2311504,4273,Quixeré,CE,-5.0742,-37.9886,25
2311603,4290,Redenção,CE,-4.2258,-38.7306,88
2311702,4304,Reriutaba,CE,-4.1417,-40.5822,145
2311801,4465,Russas,CE,-4.9403,-37.9758,20
2311900,4472,Saboeiro,CE,-6.5419,-39.9067,291
2311959,4491,Salitre,CE,-7.2847,-40.4572,680
2312205,4617,"Santa Quitéria",CE,-4.3319,-40.1567,197
2312007,4671,"Santana do Acaraú",CE,-3.4606,-40.2122,45
2312106,4673,"Santana do Cariri",CE,-7.1883,-39.7369,500
2312304,4750,"São Benedito",CE,-4.0486,-40.8650,901
2312403,4837,"São Gonçalo do Amarante",CE,-3.6072,-38.9683,30
2312502,4881,"São João do Jaguaribe",CE,-5.2711,-38.2736,51
2312601,4978,"São Luís do Curu",CE,-3.6700,-39.2433,38
2312700,5138,"Senador Pompeu",CE,-5.5881,-39.3717,177
2312809,5140,"Senador Sá",CE,-3.3506,-40.4633,87
2312908,5237,Sobral,CE,-3.6861,-40.3497,69
2313005,5246,Solonópole,CE,-5.7333,-39.0075,155
2313104,5279,"Tabuleiro do Norte",CE,-5.2467,-38.1306,39
2313203,5299,Tamboril,CE,-4.8322,-40.3206,322
2313252,5340,Tarrafas,CE,-6.6844,-39.7614,280
2313302,5346,Tauá,CE,-6.0031,-40.2928,402
2313351,5356,Tejuçuoca,CE,-3.9889,-39.5806,140
2313401,5388,Tianguá,CE,-3.7322,-40.9917,775
2313500,5432,Trairi,CE,-3.2778,-39.2689,9
2313559,5498,Tururu,CE,-3.5808,-39.4372,103
2313609,5511,Ubajara,CE,-3.8544,-40.9211,847
2313708,5527,Umari,CE,-6.6478,-38.7000,272
2313757,5533,Umirim,CE,-3.6772,-39.3503,65
2313807,5558,Uruburetama,CE,-3.6250,-39.5083,125
2313906,5566,Uruoca,CE,-3.3139,-40.5567,81
2313955,5602,Varjota,CE,-4.1944,-40.4767,183
2314003,5606,"Várzea Alegre",CE,-6.7889,-39.2958,317
2314102,5655,"Viçosa do Ceará",CE,-3.5622,-41.0922,717
,5809,"Águas Claras",DF,-15.7797,-47.9297,1061
5300108,224,Brasília,DF,-15.7797,-47.9297,1171
,5800,Brazlândia,DF,-15.7797,-47.9297,1061
,5796,Ceilândia,DF,-15.7797,-47.9297,0
,5805,Cruzeiro,DF,-15.7797,-47.9297,1061
,5799,Gama,DF,-15.7797,-47.9297,1061
,5804,Guará,DF,-15.7797,-47.9297,1061
,5803,"Núcleo Bandeirante",DF,-15.7797,-47.9297,1061
,5802,Paranoá,DF,-15.7797,-47.9297,1061
,5810,Planaltina,DF,-15.7797,-47.9297,1061
,5808,"Recanto das Emas",DF,-15.7797,-47.9297,1061
,5806,Samambaia,DF,-15.7797,-47.9297,1061
,5797,"Santa Maria",DF,-15.7797,-47.9297,1061
,5807,"São Sebastião",DF,-15.7797,-47.9297,1061
,5798,Sobradinho,DF,-15.7797,-47.9297,1061
,5801,Taguatinga,DF,-15.7797,-47.9297,1061
3200102,283,"Afonso Cláudio",ES,-20.0742,-41.1239,370
3200169,301,"Água Doce do Norte",ES,-18.5469,-40.9786,194
3200136,324,"Águia Branca",ES,-18.9831,-40.7403,140
3200201,348,Alegre,ES,-20.7636,-41.5331,254
3200300,357,"Alfredo Chaves",ES,-20.6350,-40.7497,17
3200359,409,"Alto Rio Novo",ES,-19.0561,-41.0167,540
3200409,468,Anchieta,ES,-20.8058,-40.6456,2
3200508,521,Apiacá,ES,-21.1536,-41.5675,70
,5877,Aracê,ES,-20.4050,-41.0031,970
3200607,549,Aracruz,ES,-19.8203,-40.2733,60
3200706,664,"Atilio Vivacqua",ES,-20.9142,-41.1983,85
3200805,703,"Baixo Guandu",ES,-19.5189,-41.0158,77
3200904,754,"Barra de São Francisco",ES,-18.7550,-40.8908,192
3201001,869,"Boa Esperança",ES,-18.5400,-40.2958,140
3201100,921,"Bom Jesus do Norte",ES,-21.1322,-41.6767,70
3201159,994,Brejetuba,ES,-20.1461,-41.2903,780
3201209,1088,"Cachoeiro de Itapemirim",ES,-20.8489,-41.1128,36
3201308,1338,Cariacica,ES,-20.2639,-40.4200,73
3201407,1400,Castelo,ES,-20.6036,-41.1847,100
3201506,1527,Colatina,ES,-19.5394,-40.6306,38
3201605,1551,"Conceição da Barra",ES,-18.5933,-39.7322,2
3201704,1561,"Conceição do Castelo",ES,-20.3683,-41.2439,610
3201803,1789,"Divino de São Lourenço",ES,-20.6200,-41.6858,680
3201902,1823,"Domingos Martins",ES,-20.3633,-40.6592,620
3202009,1832,"Dores do Rio Preto",ES,-20.6889,-41.8453,770
3202108,1858,Ecoporanga,ES,-18.3733,-40.8306,260
3202207,2085,Fundão,ES,-19.9325,-40.4067,63
3202256,5772,"Governador Lindenberg",ES,-19.2500,-40.4500,170
3202306,2186,Guaçuí,ES,-20.7756,-41.6794,590
3202405,2231,Guarapari,ES,-20.6667,-40.4975,2
3202454,2296,Ibatiba,ES,-20.2339,-41.5106,740
3202504,2319,Ibiraçu,ES,-19.8319,-40.3697,36
3202553,2332,Ibitirama,ES,-20.5414,-41.6672,770
3202603,2346,Iconha,ES,-20.7931,-40.8111,8
3202652,2486,Irupi,ES,-20.3453,-41.6411,730
3202702,2515,Itaguaçu,ES,-19.8019,-40.8556,157
3202801,2575,Itapemirim,ES,-21.0111,-40.8339,20
3202900,2612,Itarana,ES,-19.8739,-40.8753,150
,5876,Itaúnas,ES,-18.4194,-39.7089,10
3203007,2658,Iúna,ES,-20.3458,-41.5358,661
3203056,2699,Jaguaré,ES,-18.9056,-40.0761,80
3203106,2778,"Jerônimo Monteiro",ES,-20.7894,-41.3950,110
3203130,2798,"João Neiva",ES,-19.7575,-40.3856,56
3203163,2940,"Laranja da Terra",ES,-19.8989,-41.0567,180
3203205,2985,Linhares,ES,-19.3911,-40.0722,33
3203304,3101,Mantenópolis,ES,-18.8625,-41.1228,430
3203320,3125,Marataízes,ES,-21.0433,-40.8244,19
3203346,3141,"Marechal Floriano",ES,-20.4128,-40.6831,560
3203353,3156,Marilândia,ES,-19.4128,-40.5417,150
3203403,3259,"Mimoso do Sul",ES,-21.0642,-41.3664,70
3203502,3322,Montanha,ES,-18.1269,-40.3633,150
3203601,3401,Mucurici,ES,-18.0933,-40.5158,240
3203700,3413,"Muniz Freire",ES,-20.4642,-41.4131,650
3203809,3415,Muqui,ES,-20.9517,-41.3458,250
,5878,"Nova Almeida",ES,-20.0572,-40.1908,4
3203908,3576,"Nova Venécia",ES,-18.7106,-40.4006,65
3204005,3743,Pancas,ES,-19.2250,-40.8514,190
3204054,3899,"Pedro Canário",ES,-18.0303,-40.1506,140
3204104,3998,Pinheiros,ES,-18.3703,-40.2133,710
3204203,4051,Piúma,ES,-20.8378,-40.7219,2
3204252,4108,"Ponto Belo",ES,-18.1236,-40.5411,290
3204302,4204,"Presidente Kennedy",ES,-21.0989,-41.0467,55
3204351,4365,"Rio Bananal",ES,-19.2650,-40.3333,95
3204401,4407,"Rio Novo do Sul",ES,-20.8625,-40.9364,70
,5879,"Santa Cruz",ES,-19.9536,-40.1556,20
3204500,4584,"Santa Leopoldina",ES,-20.1006,-40.5297,16
3204559,4605,"Santa Maria de Jetibá",ES,-20.0406,-40.7461,700
3204609,4645,"Santa Teresa",ES,-19.9356,-40.6003,655
3204658,4791,"São Domingos do Norte",ES,-19.1436,-40.6236,180
3204708,4829,"São Gabriel da Palha",ES,-19.0175,-40.5356,140
3204807,4935,"São José do Calçado",ES,-21.0253,-41.6544,320
3204906,4993,"São Mateus",ES,-18.7161,-39.8589,36
3204955,5048,"São Roque do Canaã",ES,-19.7389,-40.6569,120
3205002,5156,Serra,ES,-20.1286,-40.3078,70
3205010,5249,Sooretama,ES,-19.1969,-40.0978,59
3205036,5592,"Vargem Alta",ES,-20.6714,-41.0069,650
3205069,5620,"Venda Nova do Imigrante",ES,-20.3397,-41.1347,630
3205101,5646,Viana,ES,-20.3903,-40.4961,34
3205150,5672,"Vila Pavão",ES,-18.6150,-40.6114,195
3205176,5675,"Vila Valério",ES,-18.9978,-40.3892,140
3205200,5676,"Vila Velha",ES,-20.3297,-40.2925,5
3205309,246,Vitória,ES,-20.3194,-40.3378,3
5200050,247,"Abadia de Goiás",GO,-16.7572,-49.4375,898
5200100,249,Abadiânia,GO,-16.2042,-48.7069,1052
5200134,273,Acreúna,GO,-17.3956,-50.3769,542
5200159,277,Adelândia,GO,-16.4150,-50.1656,649
5200175,303,"Água Fria de Goiás",GO,-14.9856,-47.7842,980
5200209,304,"Água Limpa",GO,-18.0736,-48.7622,682
5200258,318,"Águas Lindas de Goiás",GO,-15.7619,-48.2817,1080
5200308,355,Alexânia,GO,-16.0822,-48.5072,1096
5200506,371,Aloândia,GO,-17.7272,-49.4803,672
5200555,399,"Alto Horizonte",GO,-14.1956,-49.3386,375
5200605,404,"Alto Paraíso de Goiás",GO,-14.1325,-47.5100,1186
5200803,425,"Alvorada do Norte",GO,-14.4808,-46.4922,490
5200829,435,Amaralina,GO,-13.9264,-49.2972,55
5200852,443,"Americano do Brasil",GO,-16.2547,-49.9828,890
5200902,448,Amorinópolis,GO,-16.6192,-51.0936,641
5201108,463,Anápolis,GO,-16.3267,-48.9528,1017
5201207,489,Anhanguera,GO,-18.3372,-48.2192,561
5201306,492,Anicuns,GO,-16.4611,-49.9617,692
5201405,515,"Aparecida de Goiânia",GO,-16.8233,-49.2439,808
5201454,516,"Aparecida do Rio Doce",GO,-18.2989,-51.1453,0
5201504,528,Aporé,GO,-18.9653,-51.9264,538
5201603,550,Araçu,GO,-16.3575,-49.6811,716
5201702,552,Aragarças,GO,-15.8975,-52.2508,310
5201801,553,Aragoiânia,GO,-16.9119,-49.4514,859
5202155,562,Araguapaz,GO,-15.0908,-50.6322,304
5202353,619,Arenópolis,GO,-16.3861,-51.5603,416
5202502,643,Aruanã,GO,-14.9203,-51.0831,250
5202601,673,Aurilândia,GO,-16.6817,-50.4647,520
5202809,684,Avelinópolis,GO,-16.4658,-49.7578,729
5203104,706,Baliza,GO,-16.1961,-52.5450,342
5203203,790,"Barro Alto",GO,-14.9708,-48.9158,605
5203302,812,"Bela Vista de Goiás",GO,-16.9728,-48.9533,803
5203401,906,"Bom Jardim de Goiás",GO,-16.2097,-52.1722,386
5203500,917,"Bom Jesus de Goiás",GO,-18.2139,-49.7408,619
5203559,943,Bonfinópolis,GO,-16.6178,-48.9633,948
5203575,952,Bonópolis,GO,-13.6364,-49.8103,290
5203609,992,Brazabrantes,GO,-16.4306,-49.3892,761
5203807,1012,Britânia,GO,-15.2411,-51.1606,263
5203906,1032,"Buriti Alegre",GO,-18.1400,-49.0403,786
5203939,1034,"Buriti de Goiás",GO,-16.1808,-50.4311,520
5203962,1039,Buritinópolis,GO,-14.4572,-46.4372,55
5204003,1054,Cabeceiras,GO,-15.8006,-46.9267,926
5204102,1071,"Cachoeira Alta",GO,-18.7633,-50.9417,483
5204201,1073,"Cachoeira de Goiás",GO,-16.6678,-50.6469,764
5204250,1080,"Cachoeira Dourada",GO,-18.4917,-49.4750,459
5204300,1096,Caçu,GO,-18.5567,-51.1308,469
5204409,1111,Caiapônia,GO,-16.9567,-51.8103,692
5204508,1138,"Caldas Novas",GO,-17.7417,-48.6250,686
5204557,1139,Caldazinha,GO,-16.7142,-49.0019,866
5204607,1171,"Campestre de Goiás",GO,-16.7622,-49.6944,651
5204656,1180,Campinaçu,GO,-13.7900,-48.5711,690
5204706,1185,Campinorte,GO,-14.3114,-49.1511,537
5204805,1188,"Campo Alegre de Goiás",GO,-17.6331,-47.7783,877
5204854,5773,"Campo Limpo de Goiás",GO,-16.3000,-49.0200,946
5204904,1216,"Campos Belos",GO,-13.0367,-46.7717,643
5204953,1226,"Campos Verdes",GO,-14.2578,-49.6575,420
5205000,1360,"Carmo do Rio Verde",GO,-15.3536,-49.7075,629
5205059,1399,Castelândia,GO,-18.0889,-50.2228,442
5205109,1406,Catalão,GO,-18.1658,-47.9464,835
5205208,1422,Caturaí,GO,-16.4469,-49.4939,763
5205307,1427,Cavalcante,GO,-13.7975,-47.4583,823
5205406,1451,Ceres,GO,-15.3083,-49.5983,571
5205455,1464,Cezarina,GO,-16.9719,-49.7758,596
5205471,1476,"Chapadão do Céu",GO,-18.4075,-52.5489,725
5205497,1499,"Cidade Ocidental",GO,-16.0772,-47.9264,1057
5205513,1518,"Cocalzinho de Goiás",GO,-15.7944,-48.7758,1152
5205521,1532,"Colinas do Sul",GO,-14.1514,-48.0783,535
5205703,1637,"Córrego do Ouro",GO,-16.2939,-50.5481,563
5205802,1646,"Corumbá de Goiás",GO,-15.9236,-48.8086,962
5205901,1647,Corumbaíba,GO,-18.1425,-48.5614,633
5206206,1682,Cristalina,GO,-16.7686,-47.6136,1189
5206305,1684,Cristianópolis,GO,-17.1992,-48.7058,802
5206404,1689,Crixás,GO,-14.5489,-49.9692,389
5206503,1692,Cromínia,GO,-17.2867,-49.3814,694
5206602,1716,Cumari,GO,-18.2631,-48.1511,692
5206701,1744,Damianópolis,GO,-14.5639,-46.1772,746
5206800,1746,Damolândia,GO,-16.2525,-49.3700,819
5206909,1752,Davinópolis,GO,-18.1531,-47.5617,771
5207105,1782,Diorama,GO,-16.2342,-51.2556,506
5208301,1793,"Divinópolis de Goiás",GO,-13.2950,-46.3931,620
5207253,1847,Doverlândia,GO,-16.7203,-52.3194,509
5207352,1859,Edealina,GO,-17.4239,-49.6633,578
5207402,1860,Edéia,GO,-17.3383,-49.9314,601
5207501,1938,"Estrela do Norte",GO,-13.8683,-49.0725,453
5207535,1955,Faina,GO,-15.4461,-50.3606,360
5207600,1971,"Fazenda Nova",GO,-16.1831,-50.7797,476
5207808,2008,Firminópolis,GO,-16.5819,-50.3050,685
5207907,2018,"Flores de Goiás",GO,-14.4486,-47.0503,440
5208004,2036,Formosa,GO,-15.5372,-47.3344,916
5208103,2041,Formoso,GO,-13.6536,-48.8819,569
5208152,5774,"Gameleira de Goiás",GO,-16.2800,-48.9900,1001
5208400,2136,Goianápolis,GO,-16.5106,-49.0239,982
5208509,2137,Goiandira,GO,-18.1317,-48.0850,848
5208608,2138,Goianésia,GO,-15.3175,-49.1175,640
5208707,230,Goiânia,GO,-16.6786,-49.2539,749
5208806,2141,Goianira,GO,-16.4961,-49.4264,757
5208905,2143,Goiás,GO,-15.9344,-50.1403,496
5209101,2145,Goiatuba,GO,-18.0125,-49.3547,774
5209150,2153,Gouvelândia,GO,-18.6425,-50.0661,395
5209200,2207,Guapó,GO,-16.8306,-49.5319,707
5209291,2220,Guaraíta,GO,-15.6142,-50.0239,669
5209408,2226,"Guarani de Goiás",GO,-13.9358,-46.4803,521
5209457,2244,Guarinos,GO,-14.7317,-49.7017,480
5209606,2264,Heitoraí,GO,-15.7189,-49.8292,658
5209705,2272,Hidrolândia,GO,-16.9622,-49.2281,814
5209804,2273,Hidrolina,GO,-14.7244,-49.4650,603
5209903,2285,Iaciara,GO,-14.0958,-46.6317,571
5209937,2396,Inaciolândia,GO,-18.4881,-49.9872,442
5209952,2409,Indiara,GO,-17.1381,-49.9881,550
5210000,2422,Inhumas,GO,-16.3578,-49.4961,770
5210109,2428,Ipameri,GO,-17.7219,-48.1597,764
5210158,5775,"Ipiranga de Goiás",GO,-15.2700,-49.5800,571
5210208,2450,Iporá,GO,-16.4419,-51.1178,584
5210307,2488,Israelândia,GO,-16.3178,-50.9081,378
5210406,2497,Itaberaí,GO,-16.0203,-49.8103,701
5210562,2520,Itaguari,GO,-15.9186,-49.6044,687
5210604,2521,Itaguaru,GO,-15.7583,-49.6342,770
5210802,2534,Itajá,GO,-19.0675,-51.5444,442
5210901,2564,Itapaci,GO,-14.9508,-49.5494,557
5211008,2589,Itapirapuã,GO,-15.8233,-50.6133,348
5211206,2606,Itapuranga,GO,-15.5622,-49.9486,651
5211305,2617,Itarumã,GO,-18.7692,-51.3481,474
5211404,2630,Itauçu,GO,-16.2006,-49.6081,839
5211503,2649,Itumbiara,GO,-18.4192,-49.2153,448
5211602,2664,Ivolândia,GO,-16.6019,-50.7939,637
5211701,2716,Jandaia,GO,-17.0486,-50.1461,637
5211800,2738,Jaraguá,GO,-15.7569,-49.3344,666
5211909,2755,Jataí,GO,-17.8814,-51.7144,696
5212006,2765,Jaupaci,GO,-16.1781,-50.9531,354
5212055,2782,Jesúpolis,GO,-15.9514,-49.3739,0
5212105,2819,Joviânia,GO,-17.8058,-49.6128,807
5212204,2861,Jussara,GO,-15.8650,-50.8681,317
5212253,5776,"Lagoa Santa",GO,-19.0200,-51.5300,442
5212303,2966,"Leopoldo de Bulhões",GO,-16.6192,-48.7436,1030
5212501,3022,Luziânia,GO,-16.2525,-47.9503,930
5212600,3061,Mairipotaba,GO,-17.2992,-49.4914,658
5212709,3074,Mambaí,GO,-14.4878,-46.1131,709
5212808,3105,"Mara Rosa",GO,-14.0164,-49.1772,530
5212907,3181,Marzagão,GO,-17.9814,-48.6403,604
5212956,3216,Matrinchã,GO,-15.4436,-50.7461,315
5213004,3224,Maurilândia,GO,-17.9708,-50.3386,450
5213053,3258,"Mimoso de Goiás",GO,-15.0561,-48.1614,675
5213087,3260,Minaçu,GO,-13.5331,-48.2200,351
5213103,3265,Mineiros,GO,-17.5694,-52.5511,750
5213400,3304,Moiporá,GO,-16.5461,-50.7392,678
5213509,3327,"Monte Alegre de Goiás",GO,-13.2564,-46.9006,557
5213707,3359,"Montes Claros de Goiás",GO,-16.0078,-51.3967,472
5213756,3361,Montividiu,GO,-17.4442,-51.1747,821
5213772,3362,"Montividiu do Norte",GO,-13.1125,-48.6072,0
5213806,3373,Morrinhos,GO,-17.7311,-49.0994,771
5213855,3376,"Morro Agudo de Goiás",GO,-15.3208,-50.0567,691
5213905,3390,Mossâmedes,GO,-16.1267,-50.2150,615
5214002,3394,Mozarlândia,GO,-14.7447,-50.5706,309
5214051,3408,"Mundo Novo",GO,-13.7761,-50.2811,263
5214101,3425,Mutunópolis,GO,-13.7325,-49.2750,413
5214408,3448,Nazário,GO,-16.5817,-49.8817,649
5214507,3451,Nerópolis,GO,-16.4064,-49.2186,832
5214606,3462,Niquelândia,GO,-14.4739,-48.4597,583
5214705,3483,"Nova América",GO,-15.0217,-49.8958,796
5214804,3487,"Nova Aurora",GO,-18.0575,-48.2536,719
5214838,3504,"Nova Crixás",GO,-14.0986,-50.3267,282
5214861,3517,"Nova Glória",GO,-15.1431,-49.5711,562
5214879,3524,"Nova Iguaçu de Goiás",GO,-14.2878,-49.3875,375
5214903,3560,"Nova Roma",GO,-13.7419,-46.8803,610
5215009,3577,"Nova Veneza",GO,-16.3708,-49.3231,806
5215207,3587,"Novo Brasil",GO,-16.0342,-50.7111,400
5215231,3590,"Novo Gama",GO,-16.0592,-48.0394,1100
5215256,3606,"Novo Planalto",GO,-13.2444,-49.5039,304
5215306,3649,Orizona,GO,-17.0314,-48.2958,806
5215405,3677,"Ouro Verde de Goiás",GO,-16.2203,-49.1933,1040
5215504,3682,Ouvidor,GO,-18.2336,-47.8389,810
5215603,3692,"Padre Bernardo",GO,-15.1603,-48.2839,629
5215652,3708,"Palestina de Goiás",GO,-16.7333,-51.5325,741
5215702,3730,"Palmeiras de Goiás",GO,-16.8050,-49.9258,596
5215801,3733,Palmelo,GO,-17.3244,-48.4233,754
5215900,3734,Palminópolis,GO,-16.7961,-50.1647,719
5216007,3741,Panamá,GO,-18.1767,-49.3542,733
5216304,3777,Paranaiguara,GO,-18.9158,-50.6539,479
5216403,3793,Paraúna,GO,-16.9478,-50.4486,721
5216452,3938,Perolândia,GO,-17.5286,-52.0642,889
5216809,3945,"Petrolina de Goiás",GO,-16.0950,-49.3381,720
5216908,3966,"Pilar de Goiás",GO,-14.7639,-49.5783,753
5217104,4007,Piracanjuba,GO,-17.3028,-49.0167,742
5217203,4023,Piranhas,GO,-16.4269,-51.8222,389
5217302,4037,Pirenópolis,GO,-15.8525,-48.9592,770
5217401,4038,"Pires do Rio",GO,-17.2997,-48.2794,758
5217609,4054,Planaltina,GO,-15.4528,-47.6142,944
5217708,4095,Pontalina,GO,-17.5250,-49.4472,610
5218003,4115,Porangatu,GO,-13.4408,-49.1486,396
5218052,4120,Porteirão,GO,-17.8153,-50.1636,470
5218102,4124,Portelândia,GO,-17.3536,-52.6786,858
5218300,4160,Posse,GO,-14.0931,-46.3694,811
5218391,4224,"Professor Jamil",GO,-17.2486,-49.2417,748
5218508,4263,Quirinópolis,GO,-18.4483,-50.4517,541
5218607,4334,Rialma,GO,-15.3150,-49.5844,582
5218706,4335,Rianápolis,GO,-15.4469,-49.5100,589
5218789,4415,"Rio Quente",GO,-17.7742,-48.7725,663
5218805,4420,"Rio Verde",GO,-17.7981,-50.9281,715
5218904,4461,Rubiataba,GO,-15.1644,-49.8033,632
5219001,4511,Sanclerlândia,GO,-16.1975,-50.3144,607
5219100,4521,"Santa Bárbara de Goiás",GO,-16.5739,-49.6944,639
5219209,4545,"Santa Cruz de Goiás",GO,-17.3158,-48.4817,754
5219258,4559,"Santa Fé de Goiás",GO,-15.7692,-51.1056,362
5219308,4571,"Santa Helena de Goiás",GO,-17.8136,-50.5969,562
5219357,4577,"Santa Isabel",GO,-15.2981,-49.4267,611
5219407,4626,"Santa Rita do Araguaia",GO,-17.3256,-53.2053,691
5219456,4628,"Santa Rita do Novo Destino",GO,-15.1353,-49.1203,790
5219506,4636,"Santa Rosa de Goiás",GO,-16.0850,-49.4936,837
5219605,4649,"Santa Tereza de Goiás",GO,-13.7144,-49.0150,409
5219704,4655,"Santa Terezinha de Goiás",GO,-14.4381,-49.7061,353
5219712,4708,"Santo Antônio da Barra",GO,-17.5614,-50.6342,578
5219738,4712,"Santo Antônio de Goiás",GO,-16.4836,-49.3111,0
5219753,4721,"Santo Antônio do Descoberto",GO,-15.9397,-48.2550,912
5219803,4782,"São Domingos",GO,-13.3983,-46.3183,677
5219902,4812,"São Francisco de Goiás",GO,-15.9306,-49.2611,747
5220009,4867,"São João D'Aliança",GO,-14.7056,-47.5247,986
5220058,4861,"São João da Paraúna",GO,-16.8147,-50.4100,640
5220108,4977,"São Luís de Montes Belos",GO,-16.5250,-50.3722,579
5220157,4984,"São Luíz do Norte",GO,-14.8625,-49.3294,564
5220207,5006,"São Miguel do Araguaia",GO,-13.2750,-50.1628,337
5220264,5011,"São Miguel do Passa Quatro",GO,-17.0586,-48.6628,801
5220280,5018,"São Patrício",GO,-15.3503,-49.8178,560
5220405,5071,"São Simão",GO,-18.9911,-50.5436,367
5220454,5128,"Senador Canedo",GO,-16.7081,-49.0931,801
5220504,5179,Serranópolis,GO,-18.3061,-51.9622,742
5220603,5209,Silvânia,GO,-16.6589,-48.6081,898
5220686,5220,Simolândia,GO,-14.4736,-46.4833,500
5220702,5228,"Sítio D'Abadia",GO,-14.8053,-46.2531,748
5221007,5329,"Taquaral de Goiás",GO,-16.0542,-49.6058,769
5221080,5371,"Teresina de Goiás",GO,-13.7764,-47.2647,754
5221197,5374,"Terezópolis de Goiás",GO,-16.3947,-49.0797,0
5221304,5452,"Três Ranchos",GO,-18.3539,-47.7825,687
5221403,5458,Trindade,GO,-16.6494,-49.4889,756
5221452,5465,Trombas,GO,-13.5086,-48.7400,355
5221502,5499,Turvânia,GO,-16.6144,-50.1342,659
5221551,5500,Turvelândia,GO,-17.8528,-50.3022,459
5221577,5524,Uirapuru,GO,-14.2850,-49.9217,0
5221601,5553,Uruaçu,GO,-14.5247,-49.1408,520
5221700,5554,Uruana,GO,-15.4981,-49.6875,586
5221809,5571,Urutaí,GO,-17.4636,-48.2017,807
5221858,5586,"Valparaíso de Goiás",GO,-16.0658,-47.9786,1080
5221908,5600,Varjão,GO,-17.0453,-49.6311,609
5222005,5647,Vianópolis,GO,-16.7419,-48.5164,1002
5222054,5651,Vicentinópolis,GO,-17.7350,-49.8050,646
5222203,5664,"Vila Boa",GO,-15.0383,-47.0594,0
5222302,5673,"Vila Propício",GO,-15.4569,-48.8886,744
2100055,263,Açailândia,MA,-4.9467,-47.5047,240
2100105,284,"Afonso Cunha",MA,-4.1328,-43.3242,76
2100154,300,"Água Doce do Maranhão",MA,-2.8406,-42.1122,21
2100204,341,Alcântara,MA,-2.4089,-44.4147,32
2100303,346,"Aldeias Altas",MA,-4.6278,-43.4706,94
2100402,379,"Altamira do Maranhão",MA,-4.0583,-45.4994,0
2100436,389,"Alto Alegre do Maranhão",MA,-4.2128,-44.4464,50
2100477,391,"Alto Alegre do Pindaré",MA,-3.6900,-45.9028,0
2100501,406,"Alto Parnaíba",MA,-9.1108,-45.9297,282
2100550,431,"Amapá do Maranhão",MA,-1.5681,-45.9297,0
2100600,437,"Amarante do Maranhão",MA,-5.5667,-46.7422,249
2100709,458,Anajatuba,MA,-3.2644,-44.6197,9
2100808,465,Anapurus,MA,-3.6717,-43.1161,82
2100832,524,Apicum-Açu,MA,-1.4611,-45.1033,0
2100873,560,Araguanã,MA,-2.9528,-45.6653,0
2100907,565,Araioses,MA,-2.8900,-41.9031,6
2100956,569,Arame,MA,-4.8858,-46.0050,10
2101004,589,Arari,MA,-3.4536,-44.7800,7
2101103,685,Axixá,MA,-2.8369,-44.0533,27
2101202,688,Bacabal,MA,-4.2917,-44.7917,21
2101251,689,Bacabeira,MA,-2.9708,-44.3156,44
2101301,690,Bacuri,MA,-1.7028,-45.1339,15
2101350,691,Bacurituba,MA,-2.7058,-44.7378,15
2101400,714,Balsas,MA,-7.5325,-46.0356,247
2101509,731,"Barão de Grajaú",MA,-6.7564,-43.0242,108
2101608,760,"Barra do Corda",MA,-5.5056,-45.2433,83
2101707,784,Barreirinhas,MA,-2.7469,-42.8264,4
2101772,814,"Bela Vista do Maranhão",MA,-3.7311,-45.3147,0
2101731,818,Belágua,MA,-3.1550,-43.5103,92
2101806,836,"Benedito Leite",MA,-7.2228,-44.5583,173
2101905,844,Bequimão,MA,-2.4489,-44.7825,17
2101939,849,"Bernardo do Mearim",MA,-4.5844,-44.7644,0
2101970,883,"Boa Vista do Gurupi",MA,-1.7875,-46.3033,0
2102002,902,"Bom Jardim",MA,-4.7417,-44.3500,40
2102036,916,"Bom Jesus das Selvas",MA,-4.4200,-46.7653,0
2102077,927,"Bom Lugar",MA,-4.2197,-45.0392,0
2102101,998,Brejo,MA,-3.6844,-42.7503,55
2102150,1001,"Brejo de Areia",MA,-4.1117,-45.4953,0
2102200,1031,Buriti,MA,-3.9422,-42.9250,227
2102309,1033,"Buriti Bravo",MA,-5.8372,-43.8336,227
2102325,1038,Buriticupu,MA,-4.3458,-46.4011,0
2102358,1040,Buritirana,MA,-5.5928,-47.0178,250
2102374,1082,"Cachoeira Grande",MA,-2.9267,-44.0581,48
2102408,1123,Cajapió,MA,-2.8808,-44.6747,18
2102507,1124,Cajari,MA,-3.3208,-45.0108,13
2102556,1172,"Campestre do Maranhão",MA,-6.1722,-47.3636,100
2102606,1249,"Cândido Mendes",MA,-1.4467,-45.7167,10
2102705,1271,Cantanhede,MA,-3.6333,-44.3767,25
2102754,1295,"Capinzal do Norte",MA,-4.7283,-44.3269,132
2102804,1372,Carolina,MA,-7.3328,-47.4694,167
2102903,1378,Carutapera,MA,-1.1950,-46.0200,26
2103000,1430,Caxias,MA,-4.8589,-43.3561,66
2103109,1434,Cedral,MA,-2.0003,-44.5361,30
2103125,1446,"Central do Maranhão",MA,-2.1986,-44.8256,45
2103158,1448,"Centro do Guilherme",MA,-2.3686,-46.0017,0
2103174,1449,"Centro Novo do Maranhão",MA,-2.1069,-46.1283,0
2103208,1479,Chapadinha,MA,-3.7417,-43.3603,105
2103257,1500,Cidelândia,MA,-5.1742,-47.7817,241
2103307,1521,Codó,MA,-4.4553,-43.8856,47
2103406,1522,"Coelho Neto",MA,-4.2567,-43.0128,81
2103505,1530,Colinas,MA,-6.0258,-44.2492,141
2103554,1564,"Conceição do Lago-Açu",MA,-3.8344,-44.8933,21
2103604,1617,Coroatá,MA,-4.1300,-44.1242,35
2103703,1740,Cururupu,MA,-1.8283,-44.8683,12
2103752,1751,Davinópolis,MA,-5.5575,-47.4258,180
2103802,1819,"Dom Pedro",MA,-5.0333,-44.4417,142
2103901,1854,"Duque Bacelar",MA,-4.1556,-42.9444,74
2104008,1917,Esperantinópolis,MA,-4.8667,-44.7083,90
2104057,1933,Estreito,MA,-6.5606,-47.4511,153
2104073,1980,"Feira Nova do Maranhão",MA,-6.9600,-46.6856,331
2104081,1992,"Fernando Falcão",MA,-6.1519,-44.8931,210
2104099,2037,"Formosa da Serra Negra",MA,-6.4353,-46.1908,288
2104107,2048,"Fortaleza dos Nogueiras",MA,-6.9639,-46.1772,430
2104206,2051,Fortuna,MA,-5.7333,-44.1583,215
2104305,2131,"Godofredo Viana",MA,-1.4033,-45.7800,10
2104404,2149,"Gonçalves Dias",MA,-5.1511,-44.2994,140
2104503,2154,"Governador Archer",MA,-5.0222,-44.2711,145
2104552,2157,"Governador Edison Lobão",MA,-5.7486,-47.3606,208
2104602,2158,"Governador Eugênio Barros",MA,-5.3231,-44.2467,145
2104628,2160,"Governador Luiz Rocha",MA,-5.4686,-44.0739,119
2104651,2162,"Governador Newton Bello",MA,-3.4261,-45.6758,0
2104677,2163,"Governador Nunes Freire",MA,-2.1258,-45.8853,0
2104701,2166,"Graça Aranha",MA,-5.4097,-44.3342,192
2104800,2168,Grajaú,MA,-5.8194,-46.1386,172
2104909,2253,Guimarães,MA,-2.1331,-44.6011,41
2105005,2283,"Humberto de Campos",MA,-2.5983,-43.4611,17
2105104,2342,Icatu,MA,-2.7758,-44.0658,12
2105153,2356,"Igarapé do Meio",MA,-3.6611,-45.2267,0
2105203,2357,"Igarapé Grande",MA,-4.5667,-44.8250,80
2105302,2394,Imperatriz,MA,-5.5264,-47.4917,116
2105351,2528,"Itaipava do Grajaú",MA,-5.1447,-45.7914,110
2105401,2572,"Itapecuru Mirim",MA,-3.3925,-44.3586,20
2105427,2636,"Itinga do Maranhão",MA,-4.4497,-47.5256,200
2105450,2760,Jatobá,MA,-5.8167,-44.2233,190
2105476,2769,"Jenipapo dos Vieiras",MA,-5.3714,-45.6364,150
2105500,2796,"João Lisboa",MA,-5.4478,-47.4008,291
2105609,2817,Joselândia,MA,-4.9333,-44.6833,60
2105658,2838,"Junco do Maranhão",MA,-1.8436,-46.0922,0
2105708,2877,"Lago da Pedra",MA,-4.5500,-45.1167,95
2105807,2878,"Lago do Junco",MA,-4.4000,-44.9167,90
2105948,5843,"Lago dos Rodrigues",MA,-4.6020,-44.9830,100
2105906,2879,"Lago Verde",MA,-4.0417,-44.9333,16
2105922,2893,"Lagoa do Mato",MA,-6.0467,-43.5261,200
,2900,"Lagoa dos Rodrigues",MA,-4.4981,-44.8986,0
2105963,2906,"Lagoa Grande do Maranhão",MA,-4.8131,-45.3297,0
2105989,2925,"Lajeado Novo",MA,-6.1886,-47.0353,100
2106003,2972,"Lima Campos",MA,-4.5167,-44.4667,82
2106102,2997,Loreto,MA,-7.0844,-45.1411,193
2106201,3008,"Luís Domingues",MA,-1.2683,-45.8733,5
2106300,3054,"Magalhães de Almeida",MA,-3.3961,-42.2039,36
2106326,3109,Maracaçumé,MA,-2.0428,-45.9592,0
2106359,3119,"Marajá do Sena",MA,-4.5994,-45.5772,0
2106375,3121,Maranhãozinho,MA,-2.3097,-45.8419,0
2106409,3190,"Mata Roma",MA,-3.6250,-43.1111,80
2106508,3203,Matinha,MA,-3.1006,-45.0336,39
2106607,3212,Matões,MA,-5.5189,-43.1989,38
2106631,3213,"Matões do Norte",MA,-3.6322,-44.5558,30
2106672,3255,"Milagres do Maranhão",MA,-3.5814,-42.6094,20
2106706,3273,Mirador,MA,-6.3708,-44.3631,186
2106755,3280,"Miranda do Norte",MA,-3.5689,-44.5839,62
2106805,3294,Mirinzal,MA,-2.0650,-44.7842,31
2106904,3311,Monção,MA,-3.4917,-45.2511,14
2107001,3357,"Montes Altos",MA,-5.8333,-47.0667,244
2107100,3386,Morros,MA,-2.8644,-44.0394,38
2107209,3458,"Nina Rodrigues",MA,-3.4661,-43.9050,15
2107258,3503,"Nova Colinas",MA,-7.1156,-46.2569,400
2107308,3526,"Nova Iorque",MA,-6.7339,-44.0444,178
2107357,3547,"Nova Olinda do Maranhão",MA,-2.8472,-45.6947,0
2107407,3624,"Olho D'Água das Cunhãs",MA,-4.1147,-45.1397,30
2107456,3634,"Olinda Nova do Maranhão",MA,-2.9981,-44.9969,28
2107506,3689,"Paço do Lumiar",MA,-2.5322,-44.1075,16
2107605,3727,Palmeirândia,MA,-2.6453,-44.8950,20
2107704,3760,Paraibano,MA,-6.4331,-43.9836,282
2107803,3809,Parnarama,MA,-5.6817,-43.0933,89
2107902,3819,"Passagem Franca",MA,-6.1797,-43.7836,243
2108009,3828,"Pastos Bons",MA,-6.6017,-44.0767,309
2108058,3850,"Paulino Neves",MA,-2.7192,-42.5331,4
2108108,3861,"Paulo Ramos",MA,-4.4439,-45.2406,70
2108207,3892,Pedreiras,MA,-4.5689,-44.5919,0
2108256,3901,"Pedro do Rosário",MA,-2.9733,-45.3494,38
2108306,3916,Penalva,MA,-3.2942,-45.1736,17
2108405,3931,"Peri Mirim",MA,-2.5775,-44.8542,11
2108454,3934,Peritoró,MA,-4.3833,-44.3333,53
2108504,3977,Pindaré-Mirim,MA,-3.6083,-45.3433,19
2108603,3995,Pinheiro,MA,-2.5214,-45.0825,15
2108702,4002,"Pio XII",MA,-3.8325,-45.1525,0
2108801,4024,Pirapemas,MA,-3.7267,-44.2233,39
2108900,4067,"Poção de Pedras",MA,-4.6667,-44.8500,90
2109007,4144,"Porto Franco",MA,-6.3383,-47.3992,162
2109056,4153,"Porto Rico do Maranhão",MA,-1.8925,-44.6050,0
2109106,4194,"Presidente Dutra",MA,-5.2900,-44.4900,112
2109205,4200,"Presidente Juscelino",MA,-2.9275,-44.0650,15
2109239,4207,"Presidente Médici",MA,-2.3867,-45.8197,0
2109270,4212,"Presidente Sarney",MA,-2.5914,-45.3642,29
2109304,4214,"Presidente Vargas",MA,-3.4069,-44.0239,58
2109403,4220,"Primeira Cruz",MA,-2.5100,-43.4383,16
2109452,4283,Raposa,MA,-2.4231,-44.1033,3
2109502,4316,Riachão,MA,-7.3619,-46.6172,383
2109551,4336,"Ribamar Fiquene",MA,-5.9303,-47.3844,156
2109601,4451,Rosário,MA,-2.9344,-44.2350,14
2109700,4508,Sambaíba,MA,-7.1403,-45.3461,212
2109759,4565,"Santa Filomena do Maranhão",MA,-5.5008,-44.5606,180
2109809,4567,"Santa Helena",MA,-2.2311,-45.3000,29
2109908,4573,"Santa Inês",MA,-3.6667,-45.3800,24
2110005,4588,"Santa Luzia",MA,-3.9633,-45.6583,60
2110039,4595,"Santa Luzia do Paruá",MA,-2.5006,-45.7750,0
2110104,4618,"Santa Quitéria do Maranhão",MA,-3.5156,-42.5467,36
2110203,4619,"Santa Rita",MA,-3.1436,-44.3258,28
2110237,4681,"Santana do Maranhão",MA,-3.1161,-42.4117,33
2110278,4701,"Santo Amaro do Maranhão",MA,-2.5003,-43.2544,10
2110302,4737,"Santo Antônio dos Lopes",MA,-4.8667,-44.3667,129
2110401,4751,"São Benedito do Rio Preto",MA,-3.3336,-43.5283,34
2110500,4753,"São Bento",MA,-2.6958,-44.8214,2
2110609,4764,"São Bernardo",MA,-3.3614,-42.4178,43
2110658,4787,"São Domingos do Azeitão",MA,-6.8100,-44.6447,308
2110708,4790,"São Domingos do Maranhão",MA,-5.5758,-44.3853,191
2110807,4797,"São Félix de Balsas",MA,-7.0828,-44.8131,188
2110856,4817,"São Francisco do Brejão",MA,-5.1228,-47.3858,255
2110906,4821,"São Francisco do Maranhão",MA,-6.2506,-42.8564,76
2111003,4851,"São João Batista",MA,-2.9553,-44.8069,29
2111029,4878,"São João do Carú",MA,-3.5544,-46.2558,50
2111052,4887,"São João do Paraíso",MA,-6.4611,-47.0575,230
2111078,4894,"São João do Soter",MA,-5.1139,-43.8100,153
2111102,4898,"São João dos Patos",MA,-6.4950,-43.7022,328
2111201,4928,"São José de Ribamar",MA,-2.5619,-44.0542,20
2111250,4962,"São José dos Basílios",MA,-5.0511,-44.5839,80
2111300,243,"São Luís",MA,-2.5297,-44.3028,24
2111409,4982,"São Luís Gonzaga do Maranhão",MA,-4.3917,-44.6500,44
2111508,4994,"São Mateus do Maranhão",MA,-4.0417,-44.4750,44
2111532,5024,"São Pedro da Água Branca",MA,-5.0850,-48.4292,171
2111573,5038,"São Pedro dos Crentes",MA,-6.8264,-46.5319,342
2111607,5041,"São Raimundo das Mangabeiras",MA,-7.0219,-45.4811,225
2111631,5042,"São Raimundo do Doca Bezerra",MA,-5.1047,-45.0772,180
2111672,5044,"São Roberto",MA,-5.0211,-44.9908,100
2111706,5087,"São Vicente Ferrer",MA,-2.8942,-44.8803,16
2111722,5107,Satubinha,MA,-3.8492,-45.2711,0
2111748,5126,"Senador Alexandre Costa",MA,-5.2564,-44.0556,149
2111763,5136,"Senador La Rocque",MA,-5.4425,-47.2908,180
2111789,5178,"Serrano do Maranhão",MA,-1.8564,-45.1225,0
2111805,5231,"Sítio Novo",MA,-5.8781,-46.6992,260
2111904,5257,"Sucupira do Norte",MA,-6.4769,-44.1917,485
2111953,5258,"Sucupira do Riachão",MA,-6.4111,-43.5461,290
2112001,5344,"Tasso Fragoso",MA,-8.4753,-45.7428,242
2112100,5399,Timbiras,MA,-4.2553,-43.9406,49
2112209,5403,Timon,MA,-5.0942,-42.8367,69
2112233,5464,"Trizidela do Vale",MA,-4.5719,-44.6208,0
2112274,5472,Tufilândia,MA,-3.7289,-45.5544,0
2112308,5479,Tuntum,MA,-5.2581,-44.6489,320
2112407,5492,Turiaçu,MA,-1.6633,-45.3717,5
2112456,5493,Turilândia,MA,-2.2008,-45.3425,0
2112506,5504,Tutóia,MA,-2.7619,-42.2744,20
2112605,5551,"Urbano Santos",MA,-3.2078,-43.4036,41
2112704,5595,"Vargem Grande",MA,-3.5431,-43.9158,43
2112803,5645,Viana,MA,-3.2203,-45.0036,22
2112852,5671,"Vila Nova dos Martírios",MA,-4.9869,-47.9933,307
2112902,5698,"Vitória do Mearim",MA,-3.4622,-44.8706,13
2113009,5701,"Vitorino Freire",MA,-4.2894,-45.2500,50
2114007,5726,"Zé Doca",MA,-3.2747,-45.6583,0
3100104,248,"Abadia dos Dourados",MG,-18.4856,-47.4031,742
3100203,250,Abaeté,MG,-19.1600,-45.4458,647
3100302,259,"Abre Campo",MG,-20.3011,-42.4775,548
3100401,262,Acaiaca,MG,-20.3625,-43.1447,421
3100500,275,Açucena,MG,-19.0731,-42.5464,472
3100609,293,"Água Boa",MG,-17.9961,-42.3889,407
3100708,298,"Água Comprida",MG,-20.0564,-48.1089,543
3100807,309,Aguanil,MG,-20.9425,-45.3928,823
3100906,316,"Águas Formosas",MG,-17.0822,-40.9358,273
3101003,320,"Águas Vermelhas",MG,-15.7472,-41.4600,758
3101102,327,Aimorés,MG,-19.4958,-41.0639,80
3101201,330,Aiuruoca,MG,-21.9756,-44.6031,974
3101300,332,Alagoa,MG,-22.1706,-44.6419,1132
3101409,340,Albertina,MG,-22.2008,-46.6158,1011
3101508,352,"Além Paraíba",MG,-21.8878,-42.7044,140
3101607,356,Alfenas,MG,-21.4292,-45.9472,881
3101631,359,"Alfredo Vasconcelos",MG,-21.1453,-43.7769,1052
3101706,368,Almenara,MG,-16.1836,-40.6944,187
3101805,372,Alpercata,MG,-18.9742,-41.9703,192
3101904,374,Alpinópolis,MG,-20.8636,-46.3881,876
3102001,383,Alterosa,MG,-21.2492,-46.1431,843
3102050,395,"Alto Caparaó",MG,-20.4333,-41.8683,1000
3153509,400,"Alto Jequitibá",MG,-20.4239,-41.9664,645
3102100,408,"Alto Rio Doce",MG,-21.0258,-43.4114,793
3102209,415,Alvarenga,MG,-19.4172,-41.7286,390
3102308,420,Alvinópolis,MG,-20.1067,-43.0489,572
3102407,423,"Alvorada de Minas",MG,-18.7361,-43.3653,657
3102506,452,"Amparo do Serra",MG,-20.5072,-42.8025,580
3102605,473,Andradas,MG,-22.0681,-46.5692,913
3102803,476,Andrelândia,MG,-21.7397,-44.3092,998
3102852,478,Angelândia,MG,-17.6022,-42.1625,891
3102902,504,"Antônio Carlos",MG,-21.3181,-43.7467,1058
3103009,506,"Antônio Dias",MG,-19.6528,-42.8722,398
3103108,512,"Antônio Prado de Minas",MG,-21.0161,-42.1094,312
3103207,538,Araçaí,MG,-19.1986,-44.2481,739
3103306,545,Aracitaba,MG,-21.3425,-43.3783,573
3103405,551,Araçuaí,MG,-16.8497,-42.0703,307
3103504,563,Araguari,MG,-18.6472,-48.1872,921
3103603,572,Arantina,MG,-21.9111,-44.2558,1049
3103702,576,Araponga,MG,-20.6667,-42.5208,1040
3103751,578,Araporã,MG,-18.4361,-49.1850,461
3103801,580,Arapuá,MG,-19.0339,-46.1556,1031
3103900,602,Araújos,MG,-19.9481,-45.1656,821
3104007,603,Araxá,MG,-19.5933,-46.9406,997
3104106,604,Arceburgo,MG,-21.3642,-46.9400,693
3104205,606,Arcos,MG,-20.2819,-45.5394,740
3104304,608,Areado,MG,-21.3586,-46.1456,815
3104403,621,Argirita,MG,-21.6100,-42.8361,250
3104452,622,Aricanduva,MG,-17.8672,-42.5569,682
3104502,623,Arinos,MG,-15.9169,-46.1056,509
3104601,656,"Astolfo Dutra",MG,-21.3153,-42.8622,257
3104700,662,Ataléia,MG,-18.0436,-41.1100,240
3104809,667,"Augusto de Lima",MG,-18.1092,-44.2669,534
3104908,693,Baependi,MG,-21.9589,-44.8900,893
3105004,705,Baldim,MG,-19.2883,-43.9569,603
3105103,715,Bambuí,MG,-20.0064,-45.9769,706
3105202,719,Bandeira,MG,-15.8847,-40.5594,292
3105301,720,"Bandeira do Sul",MG,-21.7281,-46.3858,962
3105400,729,"Barão de Cocais",MG,-19.9458,-43.4872,740
3105509,733,"Barão de Monte Alto",MG,-21.2450,-42.2375,205
3105608,737,Barbacena,MG,-21.2258,-43.7736,1164
3105707,774,"Barra Longa",MG,-20.2828,-43.0411,400
3105905,796,Barroso,MG,-21.1869,-43.9758,922
3106002,813,"Bela Vista de Minas",MG,-19.8303,-43.0911,686
3106101,826,"Belmiro Braga",MG,-21.9486,-43.4150,493
3106200,222,"Belo Horizonte",MG,-19.9208,-43.9378,858
3106309,832,"Belo Oriente",MG,-19.2200,-42.4836,300
3106408,833,"Belo Vale",MG,-20.4078,-44.0244,832
3106507,845,Berilo,MG,-16.9517,-42.4656,401
3106655,846,Berizal,MG,-15.6133,-41.7450,692
3106606,853,Bertópolis,MG,-17.0631,-40.5744,278
3106705,857,Betim,MG,-19.9678,-44.1983,860
3106804,859,"Bias Fortes",MG,-21.6061,-43.7569,763
3106903,860,Bicas,MG,-21.7253,-43.0594,601
3107000,863,Biquinhas,MG,-18.7828,-45.5022,629
3107109,870,"Boa Esperança",MG,-21.0900,-45.5658,775
3107208,891,"Bocaina de Minas",MG,-22.1675,-44.3947,1210
3107307,893,Bocaiúva,MG,-17.1078,-43.8150,698
3107406,901,"Bom Despacho",MG,-19.7364,-45.2522,769
3107505,907,"Bom Jardim de Minas",MG,-21.9472,-44.1911,1112
3107604,914,"Bom Jesus da Penha",MG,-21.0169,-46.5225,990
3107703,918,"Bom Jesus do Amparo",MG,-19.7036,-43.4736,693
3107802,919,"Bom Jesus do Galho",MG,-19.8289,-42.3161,542
3107901,931,"Bom Repouso",MG,-22.4711,-46.1450,1375
3108008,935,"Bom Sucesso",MG,-21.0331,-44.7581,952
3108107,941,Bonfim,MG,-20.3267,-44.2386,930
3108206,944,"Bonfinópolis de Minas",MG,-16.5675,-45.9900,651
3108255,950,"Bonito de Minas",MG,-15.3233,-44.7544,629
3108305,963,"Borda da Mata",MG,-22.2742,-46.1653,892
3108404,967,Botelhos,MG,-21.6333,-46.3950,1008
3108503,969,Botumirim,MG,-16.8722,-43.0108,948
3108701,979,"Brás Pires",MG,-20.9206,-43.2422,640
3108552,982,"Brasilândia de Minas",MG,-17.0097,-46.0094,530
3108602,987,"Brasília de Minas",MG,-16.2064,-44.4333,732
3108909,989,Brasópolis,MG,-22.4736,-45.6075,922
3108800,991,Braúnas,MG,-19.0558,-42.7156,425
3109006,1017,Brumadinho,MG,-20.1433,-44.1997,892
3109105,1021,"Bueno Brandão",MG,-22.4408,-46.3508,1204
3109204,1022,Buenópolis,MG,-17.8733,-44.1800,586
3109253,1025,Bugre,MG,-19.4261,-42.2444,410
3109303,1043,Buritis,MG,-15.6178,-46.4233,538
3109402,1045,Buritizeiro,MG,-17.3511,-44.9622,538
3109451,1053,"Cabeceira Grande",MG,-16.0297,-47.0906,923
3109501,1060,"Cabo Verde",MG,-21.4719,-46.3961,927
3109600,1072,"Cachoeira da Prata",MG,-19.5247,-44.4536,716
3109709,1074,"Cachoeira de Minas",MG,-22.3550,-45.7789,849
3102704,1075,"Cachoeira de Pajeú",MG,-15.9661,-41.4981,721
3109808,1081,"Cachoeira Dourada",MG,-18.5150,-49.5014,469
3109907,1099,Caetanópolis,MG,-19.2953,-44.4186,742
3110004,1101,Caeté,MG,-19.8800,-43.6697,945
3110103,1110,Caiana,MG,-20.6956,-41.9250,750
3110202,1132,Cajuri,MG,-20.7906,-42.7967,698
3110301,1136,Caldas,MG,-21.9236,-46.3861,1105
3110400,1147,Camacho,MG,-20.6253,-45.1567,957
3110509,1150,Camanducaia,MG,-22.7553,-46.1447,1048
3110608,1161,Cambuí,MG,-22.6122,-46.0575,907
3110707,1162,Cambuquira,MG,-21.8522,-45.2958,950
3110806,1166,Campanário,MG,-18.2386,-41.7483,268
3110905,1167,Campanha,MG,-21.8361,-45.4006,928
3111002,1169,Campestre,MG,-21.7111,-46.2464,1076
3111101,1179,"Campina Verde",MG,-19.5356,-49.4864,494
3111150,1191,"Campo Azul",MG,-16.5036,-44.8106,600
3111200,1192,"Campo Belo",MG,-20.8972,-45.2772,945
3111309,1197,"Campo do Meio",MG,-21.1067,-45.8303,785
3111408,1200,"Campo Florido",MG,-19.7606,-48.5722,642
3111507,1215,"Campos Altos",MG,-19.6961,-46.1714,1050
3111606,1221,"Campos Gerais",MG,-21.2350,-45.7586,843
3111903,1229,"Cana Verde",MG,-21.0208,-45.1819,867
3111705,1230,Canaã,MG,-20.6858,-42.6197,718
3111804,1235,Canápolis,MG,-18.7250,-49.2044,662
3112000,1243,Candeias,MG,-20.7669,-45.2764,967
3112059,1268,Cantagalo,MG,-18.5258,-42.6269,650
3112109,1281,Caparaó,MG,-20.5231,-41.9044,850
3112208,1287,"Capela Nova",MG,-20.9231,-43.6178,825
3112307,1288,Capelinha,MG,-17.6914,-42.5158,948
3112406,1289,Capetinga,MG,-20.6164,-47.0536,792
3112505,1291,"Capim Branco",MG,-19.5489,-44.1167,830
3112604,1293,Capinópolis,MG,-18.6819,-49.5697,564
3112653,1298,"Capitão Andrade",MG,-19.0675,-41.8581,230
3112703,1300,"Capitão Enéas",MG,-16.3244,-43.7106,571
3112802,1304,Capitólio,MG,-20.6153,-46.0500,766
3112901,1310,Caputira,MG,-20.1719,-42.2706,592
3113008,1316,Caraí,MG,-17.1889,-41.6947,910
3113107,1319,Caranaíba,MG,-20.8758,-43.7392,822
3113206,1320,Carandaí,MG,-20.9536,-43.8064,1080
3113305,1321,Carangola,MG,-20.7331,-42.0294,408
3113404,1324,Caratinga,MG,-19.7897,-42.1392,578
3113503,1331,Carbonita,MG,-17.5269,-43.0158,726
3113602,1335,Careaçu,MG,-22.0431,-45.6992,816
3113701,1350,"Carlos Chagas",MG,-17.7031,-40.7664,159
3113800,1352,Carmésia,MG,-19.0889,-43.1417,551
3113909,1354,"Carmo da Cachoeira",MG,-21.4608,-45.2236,945
3114006,1355,"Carmo da Mata",MG,-20.5578,-44.8706,846
3114105,1356,"Carmo de Minas",MG,-22.1222,-45.1292,958
3114204,1357,"Carmo do Cajuru",MG,-20.1842,-44.7711,772
3114303,1358,"Carmo do Paranaíba",MG,-19.0008,-46.3161,1061
3114402,1359,"Carmo do Rio Claro",MG,-20.9719,-46.1189,830
3114501,1363,"Carmópolis de Minas",MG,-20.5414,-44.6350,903
3114550,1369,Carneirinho,MG,-19.6975,-50.6881,431
3114600,1374,Carrancas,MG,-21.4875,-44.6425,1052
3114709,1379,Carvalhópolis,MG,-21.7778,-45.8411,868
3114808,1380,Carvalhos,MG,-22.0011,-44.4614,1092
3114907,1382,"Casa Grande",MG,-20.7928,-43.9303,972
3115003,1385,"Cascalho Rico",MG,-18.5764,-47.8772,709
3115102,1393,Cássia,MG,-20.5831,-46.9219,738
3115300,1405,Cataguases,MG,-21.3892,-42.6967,169
3115359,1411,"Catas Altas",MG,-20.0747,-43.4075,752
3115409,1412,"Catas Altas da Noruega",MG,-20.6900,-43.4975,752
3115458,1420,Catuji,MG,-17.2994,-41.5169,625
3115474,1425,Catuti,MG,-15.3583,-42.9628,530
3115508,1428,Caxambu,MG,-21.9772,-44.9325,895
3115607,1439,"Cedro do Abaeté",MG,-19.1483,-45.7114,935
3115706,1445,"Central de Minas",MG,-18.7619,-41.3064,242
3115805,1447,Centralina,MG,-18.5839,-49.1994,531
3115904,1468,Chácara,MG,-21.6722,-43.2217,800
3116001,1469,Chalé,MG,-20.0436,-41.6878,370
3116100,1473,"Chapada do Norte",MG,-17.0869,-42.5353,597
3116159,1475,"Chapada Gaúcha",MG,-15.3056,-45.6183,858
3116209,1487,Chiador,MG,-22.0025,-43.0578,332
3116308,1503,Cipotânea,MG,-20.9053,-43.3656,660
3116407,1505,Claraval,MG,-20.3989,-47.2667,749
3116506,1506,"Claro dos Poções",MG,-17.0797,-44.2086,632
3116605,1508,Cláudio,MG,-20.4433,-44.7658,832
3116704,1523,Coimbra,MG,-20.8567,-42.8028,720
3116803,1543,Coluna,MG,-18.2339,-42.8403,691
3116902,1545,"Comendador Gomes",MG,-19.6983,-49.0806,557
3117009,1547,Comercinho,MG,-16.2961,-41.7933,620
3117108,1550,"Conceição da Aparecida",MG,-21.0942,-46.2044,985
3115201,1552,"Conceição da Barra de Minas",MG,-21.1289,-44.4722,928
3117306,1554,"Conceição das Alagoas",MG,-19.9147,-48.3883,509
3117207,1555,"Conceição das Pedras",MG,-22.1600,-45.4547,1068
3117405,1556,"Conceição de Ipanema",MG,-19.9281,-41.6939,294
3117504,1565,"Conceição do Mato Dentro",MG,-19.0372,-43.4250,701
3117603,1566,"Conceição do Pará",MG,-19.7531,-44.8967,650
3117702,1567,"Conceição do Rio Verde",MG,-21.8808,-45.0853,880
3117801,1569,"Conceição dos Ouros",MG,-22.4131,-45.7981,863
3117836,1580,"Cônego Marinho",MG,-15.2942,-44.4181,637
3117876,1581,Confins,MG,-19.6325,-43.9828,750
3117900,1584,Congonhal,MG,-22.1528,-46.0394,862
3118007,1585,Congonhas,MG,-20.4997,-43.8578,871
3118106,1586,"Congonhas do Norte",MG,-18.8072,-43.6814,1050
3118205,1588,Conquista,MG,-19.9372,-47.5417,673
3118304,1589,"Conselheiro Lafaiete",MG,-20.6603,-43.7861,995
3118403,1591,"Conselheiro Pena",MG,-19.1722,-41.4722,121
3118502,1592,Consolação,MG,-22.5514,-45.9211,1035
3118601,1594,Contagem,MG,-19.9317,-44.0536,902
3118700,1597,Coqueiral,MG,-21.1894,-45.4406,867
3118809,1600,"Coração de Jesus",MG,-16.6853,-44.3650,760
3118908,1607,Cordisburgo,MG,-19.1250,-44.3208,720
3119005,1608,Cordislândia,MG,-21.7925,-45.7008,819
3119104,1613,Corinto,MG,-18.3808,-44.4564,636
3119203,1615,Coroaci,MG,-18.6219,-42.2858,467
3119302,1618,Coromandel,MG,-18.4733,-47.2003,976
3119401,1623,"Coronel Fabriciano",MG,-19.5186,-42.6289,250
3119500,1630,"Coronel Murta",MG,-16.6189,-42.1822,322
3119609,1631,"Coronel Pacheco",MG,-21.5878,-43.2656,484
3119708,1634,"Coronel Xavier Chaves",MG,-21.0236,-44.2231,931
3119807,1635,"Córrego Danta",MG,-19.8236,-45.9044,648
3119906,1636,"Córrego do Bom Jesus",MG,-22.6303,-46.0200,911
3119955,1638,"Córrego Fundo",MG,-20.4492,-45.5550,844
3120003,1639,"Córrego Novo",MG,-19.8319,-42.3964,425
3120102,1662,"Couto de Magalhães de Minas",MG,-18.0714,-43.4711,726
3120151,1672,Crisólita,MG,-17.2372,-40.9119,282
3120201,1675,Cristais,MG,-20.8756,-45.5186,873
3120300,1681,Cristália,MG,-16.8003,-42.8622,728
3120409,1683,"Cristiano Otoni",MG,-20.8322,-43.8056,1005
3120508,1685,Cristina,MG,-22.2119,-45.2642,1025
3120607,1693,Crucilândia,MG,-20.3839,-44.3369,908
3120706,1701,"Cruzeiro da Fortaleza",MG,-18.9458,-46.6736,859
3120805,1708,Cruzília,MG,-21.8386,-44.8083,1010
3120839,1723,Cuparaque,MG,-18.9694,-41.0992,180
3120870,1733,"Curral de Dentro",MG,-15.9375,-41.8444,890
3120904,1741,Curvelo,MG,-18.7564,-44.4308,632
3121001,1749,Datas,MG,-18.4456,-43.6558,1231
3121100,1753,"Delfim Moreira",MG,-22.5092,-45.2800,1200
3121209,1754,Delfinópolis,MG,-20.3439,-46.8539,684
3121258,1756,Delta,MG,-19.9767,-47.7711,500
3121308,1764,Descoberto,MG,-21.4597,-42.9675,340
3121407,1766,"Desterro de Entre Rios",MG,-20.6600,-44.3325,1052
3121506,1767,"Desterro do Melo",MG,-21.1472,-43.5178,818
3121605,1774,Diamantina,MG,-18.2494,-43.6003,1113
3121704,1779,"Diogo de Vasconcelos",MG,-20.4878,-43.1983,592
3121803,1780,Dionísio,MG,-19.8428,-42.7767,355
3121902,1786,Divinésia,MG,-20.9903,-43.0039,753
3122009,1787,Divino,MG,-20.6144,-42.1486,660
3122108,1788,"Divino das Laranjeiras",MG,-18.7778,-41.4797,240
3122207,1791,"Divinolândia de Minas",MG,-18.8011,-42.6144,748
3122306,1792,Divinópolis,MG,-20.1389,-44.8839,712
3122355,1795,"Divisa Alegre",MG,-15.7256,-41.3450,975
3122405,1796,"Divisa Nova",MG,-21.5111,-46.1958,877
3122454,1797,Divisópolis,MG,-15.7256,-41.0000,910
3122470,1810,"Dom Bosco",MG,-16.6519,-46.2708,610
3122504,1811,"Dom Cavati",MG,-19.3739,-42.1064,358
3122603,1816,"Dom Joaquim",MG,-18.9672,-43.2558,546
3122702,1821,"Dom Silvério",MG,-20.1600,-42.9678,519
3122801,1822,"Dom Viçoso",MG,-22.2544,-45.1611,923
3122900,1826,"Dona Eusébia",MG,-21.3164,-42.8106,222
3123007,1829,"Dores de Campos",MG,-21.1089,-44.0231,931
3123106,1830,"Dores de Guanhães",MG,-19.0583,-42.9292,497
3123205,1831,"Dores do Indaiá",MG,-19.4633,-45.6017,723
3123304,1833,"Dores do Turvo",MG,-20.9756,-43.1892,672
3123403,1834,Doresópolis,MG,-20.2869,-45.9033,679
3123502,1839,Douradoquara,MG,-18.4314,-47.6086,713
3123528,1856,Durandé,MG,-20.2033,-41.7978,705
3123601,1871,"Elói Mendes",MG,-21.6100,-45.5653,907
3123700,1883,"Engenheiro Caldas",MG,-19.2194,-42.0461,231
3123809,1885,"Engenheiro Navarro",MG,-17.2797,-43.9500,671
3123858,1888,"Entre Folhas",MG,-19.6253,-42.2306,495
3123908,1892,"Entre Rios de Minas",MG,-20.6708,-44.0656,957
3124005,1907,Ervália,MG,-20.8400,-42.6572,730
3124104,1910,Esmeraldas,MG,-19.7625,-44.3139,760
3124203,1911,"Espera Feliz",MG,-20.6503,-41.9072,772
3124302,1920,Espinosa,MG,-14.9261,-42.8192,570
3124401,1922,"Espírito Santo do Dourado",MG,-22.0464,-45.9508,907
3124500,1931,Estiva,MG,-22.4628,-46.0172,560
3124609,1935,"Estrela Dalva",MG,-21.7419,-42.4611,218
3124708,1937,"Estrela do Indaiá",MG,-19.5222,-45.7875,721
3124807,1940,"Estrela do Sul",MG,-18.7456,-47.6928,765
3124906,1946,Eugenópolis,MG,-21.0986,-42.1867,194
3125002,1949,"Ewbank da Câmara",MG,-21.5511,-43.5100,778
3125101,1950,Extrema,MG,-22.8547,-46.3183,973
3125200,1956,Fama,MG,-21.4064,-45.8286,776
3125309,1957,"Faria Lemos",MG,-20.8083,-42.0297,380
3125408,1981,"Felício dos Santos",MG,-18.0772,-43.2469,740
3125606,1983,Felisburgo,MG,-16.6386,-40.7614,638
3125705,1984,Felixlândia,MG,-18.7581,-44.8989,614
3125804,1990,"Fernandes Tourinho",MG,-19.1536,-42.0819,250
3125903,2000,Ferros,MG,-19.2319,-43.0233,425
3125952,2001,Fervedouro,MG,-20.7256,-42.2789,697
3126000,2025,Florestal,MG,-19.8894,-44.4325,776
3126109,2034,Formiga,MG,-20.4644,-45.4264,841
3126208,2042,Formoso,MG,-14.9467,-46.2319,839
3126307,2046,"Fortaleza de Minas",MG,-20.8492,-46.7181,856
3126406,2052,"Fortuna de Minas",MG,-19.5611,-44.4469,740
3126505,2060,"Francisco Badaró",MG,-16.9925,-42.3519,398
3126604,2063,"Francisco Dumont",MG,-17.3150,-44.2342,635
3126703,2066,"Francisco Sá",MG,-16.4758,-43.4883,656
3126752,2068,Franciscópolis,MG,-17.9597,-42.0086,380
3126802,2072,"Frei Gaspar",MG,-18.0661,-41.4294,440
3126901,2073,"Frei Inocêncio",MG,-18.5744,-41.9089,195
3126950,2074,"Frei Lagonegro",MG,-18.1678,-42.7661,830
3127008,2079,Fronteira,MG,-20.2678,-49.1994,458
3127057,2080,"Fronteira dos Vales",MG,-16.8914,-40.9247,314
3127073,2082,"Fruta de Leite",MG,-16.1311,-42.5331,910
3127107,2083,Frutal,MG,-20.0247,-48.9406,516
3127206,2086,Funilândia,MG,-19.3675,-44.0561,690
3127305,2090,Galiléia,MG,-18.9994,-41.5375,142
3127339,2094,Gameleiras,MG,-15.0822,-43.1236,515
3127354,2124,Glaucilândia,MG,-16.8497,-43.6972,665
3127370,2133,Goiabeira,MG,-18.9822,-41.2225,180
3127388,2135,Goianá,MG,-21.5372,-43.2017,410
3127404,2148,Gonçalves,MG,-22.6589,-45.8558,1256
3127503,2151,Gonzaga,MG,-18.8222,-42.4792,795
3127602,2152,Gouveia,MG,-18.4544,-43.7408,1113
3127701,2164,"Governador Valadares",MG,-18.8511,-41.9494,170
3127800,2176,"Grão Mogol",MG,-16.5594,-42.8897,829
3127909,2183,Grupiara,MG,-18.4942,-47.7222,669
3128006,2201,Guanhães,MG,-18.7750,-42.9325,777
3128105,2202,Guapé,MG,-20.7617,-45.9175,760
3128204,2215,Guaraciaba,MG,-20.5708,-43.0075,578
3128253,2218,Guaraciama,MG,-17.0139,-43.6731,795
3128303,2223,Guaranésia,MG,-21.2992,-46.8025,751
3128402,2224,Guarani,MG,-21.3522,-43.0469,420
3128501,2234,Guarará,MG,-21.7319,-43.0375,558
3128600,2240,Guarda-Mor,MG,-17.7708,-47.0983,616
3128709,2250,Guaxupé,MG,-21.3053,-46.7128,829
3128808,2252,Guidoval,MG,-21.1519,-42.7967,302
3128907,2254,Guimarânia,MG,-18.8439,-46.7931,912
3129004,2256,Guiricema,MG,-21.0078,-42.7178,298
3129103,2257,Gurinhatã,MG,-19.2133,-49.7864,543
3129202,2265,Heliodora,MG,-22.0672,-45.5422,893
3129301,2288,Iapu,MG,-19.4367,-42.2178,430
3129400,2298,Ibertioga,MG,-21.4300,-43.9631,1032
3129509,2299,Ibiá,MG,-19.4783,-46.5389,895
3129608,2301,Ibiaí,MG,-16.8611,-44.9144,470
3129657,2317,Ibiracatu,MG,-15.6636,-44.1639,750
3129707,2318,Ibiraci,MG,-20.4622,-47.1222,1071
3129806,2328,Ibirité,MG,-20.0219,-44.0589,872
3129905,2334,"Ibitiúra de Minas",MG,-22.0608,-46.4400,913
3130002,2335,Ibituruna,MG,-21.1525,-44.7478,892
3130051,2340,"Icaraí de Minas",MG,-16.2172,-44.9064,595
3130101,2354,Igarapé,MG,-20.0703,-44.3017,786
3130200,2361,Igaratinga,MG,-19.9553,-44.7092,816
3130309,2370,Iguatama,MG,-20.1744,-45.7114,664
3130408,2374,Ijaci,MG,-21.1700,-44.9253,832
3130507,2383,Ilicínea,MG,-20.9358,-45.8328,857
3130556,2389,"Imbé de Minas",MG,-19.5972,-41.9706,582
3130606,2399,Inconfidentes,MG,-22.3169,-46.3278,869
3130655,2400,Indaiabira,MG,-15.4917,-42.1972,750
3130705,2406,Indianópolis,MG,-19.0386,-47.9169,809
3130804,2413,Ingaí,MG,-21.4011,-44.9172,951
3130903,2419,Inhapim,MG,-19.5492,-42.1200,482
3131000,2420,Inhaúma,MG,-19.4911,-44.3897,746
3131109,2423,Inimutaba,MG,-18.7292,-44.3606,600
3131158,2427,Ipaba,MG,-19.4136,-42.4194,200
3131208,2429,Ipanema,MG,-19.8008,-41.7131,241
3131307,2432,Ipatinga,MG,-19.4683,-42.5367,240
3131406,2439,Ipiaçu,MG,-18.6922,-49.9428,452
,5883,Ipoema,MG,-19.6225,-43.4347,647
3131505,2461,Ipuiúna,MG,-22.0989,-46.1897,1182
3131604,2470,"Iraí de Minas",MG,-18.9839,-47.4614,951
3131703,2499,Itabira,MG,-19.6192,-43.2269,779
3131802,2500,Itabirinha,MG,-18.5664,-41.2331,330
3131901,2501,Itabirito,MG,-20.2533,-43.8014,901
3132008,2505,Itacambira,MG,-17.0647,-43.3089,1048
3132107,2506,Itacarambi,MG,-15.1022,-44.0919,445
3132206,2519,Itaguara,MG,-20.3922,-44.4875,839
3132305,2529,Itaipé,MG,-17.4019,-41.6686,847
3132404,2539,Itajubá,MG,-22.4256,-45.4528,856
3132503,2544,Itamarandiba,MG,-17.8572,-42.8589,910
3132602,2546,"Itamarati de Minas",MG,-21.4158,-42.8178,213
3132701,2548,Itambacuri,MG,-18.0311,-41.6850,356
3132800,2553,"Itambé do Mato Dentro",MG,-19.4144,-43.3211,689
3132909,2554,Itamogi,MG,-21.0781,-47.0483,1017
3133006,2555,Itamonte,MG,-22.2839,-44.8700,906
3133105,2558,Itanhandu,MG,-22.2958,-44.9347,892
3133204,2560,Itanhomi,MG,-19.1719,-41.8653,252
3133303,2561,Itaobim,MG,-16.5617,-41.5033,271
3133402,2566,Itapagipe,MG,-19.9086,-49.3814,490
3133501,2570,Itapecerica,MG,-20.4725,-45.1256,835
3133600,2581,Itapeva,MG,-22.7681,-46.2208,989
3133709,2619,Itatiaiuçu,MG,-20.1967,-44.4211,892
3133758,2627,"Itaú de Minas",MG,-20.7394,-46.7522,735
3133808,2632,Itaúna,MG,-20.0753,-44.5764,880
3133907,2634,Itaverava,MG,-20.6781,-43.6100,792
3134004,2635,Itinga,MG,-16.6131,-41.7653,269
3134103,2647,Itueta,MG,-19.3942,-41.1703,98
3134202,2648,Ituiutaba,MG,-18.9689,-49.4650,544
3134301,2650,Itumirim,MG,-21.3169,-44.8711,871
3134400,2654,Iturama,MG,-19.7281,-50.1956,453
3134509,2655,Itutinga,MG,-21.2981,-44.6578,958
3134608,2674,Jaboticatubas,MG,-19.5136,-43.7450,772
3134707,2684,Jacinto,MG,-16.1444,-40.2933,180
3134806,2688,Jacuí,MG,-21.0167,-46.7411,1011
3134905,2692,Jacutinga,MG,-22.2856,-46.6122,839
3135001,2696,Jaguaraçu,MG,-19.6492,-42.7497,497
3135050,2709,Jaíba,MG,-15.3383,-43.6744,0
3135076,2714,Jampruca,MG,-18.4628,-41.8039,200
3135100,2715,Janaúba,MG,-15.8025,-43.3089,533
3135209,2914,Januária,MG,-15.4881,-44.3617,554
3135308,2725,Japaraíba,MG,-20.1414,-45.5033,711
3135357,2732,Japonvar,MG,-15.9947,-44.2700,700
3135407,2767,Jeceaba,MG,-20.5353,-43.9833,850
3135456,2768,"Jenipapo de Minas",MG,-17.0828,-42.2583,521
3135506,2770,Jequeri,MG,-20.4558,-42.6658,412
3135605,2772,Jequitaí,MG,-17.2356,-44.4456,517
3135704,2773,Jequitibá,MG,-19.2356,-44.0278,642
3135803,2774,Jequitinhonha,MG,-16.4339,-41.0033,223
3135902,2780,Jesuânia,MG,-21.9978,-45.2911,903
3136009,2788,Joaíma,MG,-16.6542,-41.0306,293
3136108,2789,Joanésia,MG,-19.1722,-42.6786,430
3136207,2797,"João Monlevade",MG,-19.8100,-43.1736,732
3136306,2799,"João Pinheiro",MG,-17.7425,-46.1725,765
3136405,2801,"Joaquim Felício",MG,-17.7575,-44.1722,657
3136504,2809,Jordânia,MG,-15.9003,-40.1781,198
3136520,2815,"José Gonçalves de Minas",MG,-16.9069,-42.6036,545
3136553,2816,"José Raydan",MG,-18.2194,-42.4986,450
3136579,2818,Josenópolis,MG,-16.5472,-42.5153,692
3136652,2823,Juatuba,MG,-19.9519,-44.3428,737
3136702,2833,"Juiz de Fora",MG,-21.7642,-43.3503,695
3136801,2849,Juramento,MG,-16.8481,-43.5869,682
3136900,2856,Juruaia,MG,-21.2528,-46.5769,877
3136959,2867,Juvenília,MG,-14.2625,-44.1603,445
3137007,2871,Ladainha,MG,-17.6322,-41.7375,670
3137106,2874,Lagamar,MG,-18.1783,-46.8075,836
3137205,2884,"Lagoa da Prata",MG,-20.0225,-45.5436,655
3137304,2899,"Lagoa dos Patos",MG,-16.9833,-44.5822,690
3137403,2902,"Lagoa Dourada",MG,-20.9144,-44.0783,1080
3137502,2903,"Lagoa Formosa",MG,-18.7786,-46.4075,902
3137536,2905,"Lagoa Grande",MG,-17.8353,-46.5144,572
3137601,2910,"Lagoa Santa",MG,-19.6272,-43.8897,760
3137700,2932,Lajinha,MG,-20.1514,-41.6228,470
3137809,2934,Lambari,MG,-21.9756,-45.3503,887
3137908,2936,Lamim,MG,-20.7903,-43.4742,732
3138005,2941,Laranjal,MG,-21.3744,-42.4769,175
3138104,2947,Lassance,MG,-17.8867,-44.5775,504
3138203,2954,Lavras,MG,-21.2453,-44.9997,919
3138302,2958,"Leandro Ferreira",MG,-19.7181,-45.0250,707
3138351,2961,"Leme do Prado",MG,-17.0833,-42.6925,431
3138401,2965,Leopoldina,MG,-21.5319,-42.6431,212
3138500,2969,Liberdade,MG,-22.0289,-44.3197,1152
3138609,2973,"Lima Duarte",MG,-21.8425,-43.7931,728
3138625,2975,"Limeira do Oeste",MG,-19.5511,-50.5806,428
3138658,2994,Lontra,MG,-15.9033,-44.3050,781
3138674,3010,Luisburgo,MG,-20.4397,-42.1028,800
3138682,3011,Luislândia,MG,-16.1175,-44.5886,758
3138708,3015,Luminárias,MG,-21.5111,-44.9033,957
3138807,3020,Luz,MG,-19.8014,-45.6856,675
,5880,Macacos,MG,-16.3166,-41.9000,561
3138906,3037,Machacalis,MG,-17.0772,-40.7164,285
3139003,3040,Machado,MG,-21.6747,-45.9197,820
3139102,3048,"Madre de Deus de Minas",MG,-21.4825,-44.3303,1018
3139201,3066,Malacacheta,MG,-17.8422,-42.0767,432
3139250,3076,Mamonas,MG,-15.0503,-42.9494,681
3139300,3088,Manga,MG,-14.7558,-43.9322,440
3139409,3091,Manhuaçu,MG,-20.2581,-42.0336,635
3139508,3092,Manhumirim,MG,-20.3578,-41.9581,611
3139607,3100,Mantena,MG,-18.7817,-40.9803,212
3139805,3103,"Mar de Espanha",MG,-21.8672,-43.0097,478
3139706,3130,Maravilhas,MG,-19.5161,-44.6764,775
3139904,3145,"Maria da Fé",MG,-22.3081,-45.3753,1278
3140001,3148,Mariana,MG,-20.3778,-43.4161,712
3140100,3155,Marilac,MG,-18.5081,-42.0839,248
3140159,3163,"Mário Campos",MG,-20.0564,-44.1883,730
3140209,3166,"Maripá de Minas",MG,-21.6981,-42.9589,550
3140308,3169,Marliéria,MG,-19.7122,-42.7322,536
3140407,3171,Marmelópolis,MG,-22.4492,-45.1653,1277
3140506,3174,"Martinho Campos",MG,-19.3317,-45.2369,674
3140530,3178,"Martins Soares",MG,-20.2569,-41.8769,700
3140555,3191,"Mata Verde",MG,-15.6864,-40.7411,865
3140605,3196,Materlândia,MG,-18.4742,-43.0597,781
3140704,3197,"Mateus Leme",MG,-19.9864,-44.4278,813
3171501,3198,"Mathias Lobato",MG,-18.5647,-41.9144,210
3140803,3199,"Matias Barbosa",MG,-21.8692,-43.3194,474
3140852,3200,"Matias Cardoso",MG,-14.8547,-43.9219,472
3140902,3206,Matipó,MG,-20.2839,-42.3411,615
3141009,3211,"Mato Verde",MG,-15.3972,-42.8664,541
3141108,3215,Matozinhos,MG,-19.5578,-44.0814,812
3141207,3220,Matutina,MG,-19.2225,-45.9686,1040
3141306,3230,Medeiros,MG,-19.9956,-46.2261,922
3141405,3234,Medina,MG,-16.2225,-41.4769,587
3141504,3238,"Mendes Pimentel",MG,-18.6611,-41.4047,340
3141603,3241,Mercês,MG,-21.1942,-43.3414,522
3141702,3245,Mesquita,MG,-19.2225,-42.6072,352
,5884,"Milho Verde",MG,-18.4694,-43.4989,1082
3141801,3263,"Minas Novas",MG,-17.2186,-42.5903,635
3141900,3264,Minduri,MG,-21.6819,-44.6039,1000
3142007,3269,Mirabela,MG,-16.2628,-44.1644,800
3142106,3275,Miradouro,MG,-20.8906,-42.3425,409
3142205,3277,Miraí,MG,-21.1953,-42.6142,306
3142254,3292,Miravânia,MG,-14.7411,-44.4036,632
3142304,3300,Moeda,MG,-20.3331,-44.0528,812
3142403,3301,Moema,MG,-19.8433,-45.4108,673
3142502,3315,Monjolos,MG,-18.3253,-44.1192,560
3142601,3318,"Monsenhor Paulo",MG,-21.7575,-45.5411,898
3142700,3321,Montalvânia,MG,-14.4228,-44.3656,510
3142809,3328,"Monte Alegre de Minas",MG,-18.8706,-48.8808,730
3142908,3335,"Monte Azul",MG,-15.1550,-42.8747,582
3143005,3337,"Monte Belo",MG,-21.3264,-46.3675,912
3143104,3340,"Monte Carmelo",MG,-18.7247,-47.4986,870
3143153,3345,"Monte Formoso",MG,-16.8658,-41.2553,700
3143203,3350,"Monte Santo de Minas",MG,-21.1897,-46.9803,878
3143401,3352,"Monte Sião",MG,-22.4325,-46.5725,857
,5881,"Monte Verde",MG,-22.8642,-46.0350,1554
3143302,3358,"Montes Claros",MG,-16.7350,-43.8617,648
3143450,3360,Montezuma,MG,-15.1719,-42.4972,950
3143500,3364,"Morada Nova de Minas",MG,-18.6044,-45.3567,586
3143609,3379,"Morro da Garça",MG,-18.5469,-44.6025,600
3143708,3382,"Morro do Pilar",MG,-19.2156,-43.3764,622
3143807,3410,Munhoz,MG,-22.6131,-46.3606,1235
3143906,3416,Muriaé,MG,-21.1306,-42.3664,209
3144003,3424,Mutum,MG,-19.8000,-41.4383,230
3144102,3426,Muzambinho,MG,-21.3758,-46.5256,1048
3144201,3427,"Nacip Raydan",MG,-18.4592,-42.2486,332
3144300,3429,Nanuque,MG,-17.8392,-40.3539,103
3144359,3431,Naque,MG,-19.2303,-42.3283,330
3144375,3433,Natalândia,MG,-16.5042,-46.4933,550
3144409,3434,Natércia,MG,-22.1200,-45.5117,918
3144508,3446,Nazareno,MG,-21.2164,-44.6114,935
3144607,3450,Nepomuceno,MG,-21.2358,-45.2358,840
3144656,3459,Ninheira,MG,-15.3211,-41.7536,900
3144672,3491,"Nova Belém",MG,-18.4750,-41.0167,349
3144706,3506,"Nova Era",MG,-19.7500,-43.0375,529
3144805,3532,"Nova Lima",MG,-19.9856,-43.8467,744
3144904,3538,"Nova Módica",MG,-18.4372,-41.5014,342
3145000,3553,"Nova Ponte",MG,-19.1525,-47.6747,791
3145059,3554,"Nova Porteirinha",MG,-15.8025,-43.3006,533
3145109,3559,"Nova Resende",MG,-21.1261,-46.4203,1184
3145208,3568,"Nova Serrana",MG,-19.8761,-44.9836,761
3136603,3575,"Nova União",MG,-19.6900,-43.5797,937
3145307,3589,"Novo Cruzeiro",MG,-17.4681,-41.8753,980
3145356,3604,"Novo Oriente de Minas",MG,-17.4153,-41.2153,400
3145372,3613,Novorizonte,MG,-16.0172,-42.4078,920
3145406,3621,Olaria,MG,-21.8608,-43.9372,912
3145455,3630,Olhos-D'Água,MG,-17.3969,-43.5733,751
3145505,3632,"Olímpio Noronha",MG,-22.0678,-45.2639,890
3145604,3637,Oliveira,MG,-20.6964,-44.8272,982
3145703,3640,"Oliveira Fortes",MG,-21.3389,-43.4564,851
3145802,3642,"Onça de Pitangui",MG,-19.7303,-44.8072,741
3145851,3644,Oratórios,MG,-20.4306,-42.8056,494
3145877,3648,Orizânia,MG,-20.5064,-42.2100,819
3145901,3670,"Ouro Branco",MG,-20.5208,-43.6919,1052
3146008,3671,"Ouro Fino",MG,-22.2831,-46.3689,908
3146107,3672,"Ouro Preto",MG,-20.2875,-43.5081,1179
3146206,3678,"Ouro Verde de Minas",MG,-18.0706,-41.2697,380
3146255,3693,"Padre Carvalho",MG,-16.3644,-42.5153,750
3146305,3695,"Padre Paraíso",MG,-17.0742,-41.4844,930
3146552,3697,"Pai Pedro",MG,-15.5167,-43.0653,520
3146404,3701,Paineiras,MG,-18.9083,-45.5317,637
3146503,3703,Pains,MG,-20.3706,-45.6614,693
3146602,3704,Paiva,MG,-21.2892,-43.4158,568
3146701,3712,Palma,MG,-21.3750,-42.3142,172
3146750,3739,Palmópolis,MG,-16.7350,-40.4200,600
3146909,3748,Papagaios,MG,-19.4492,-44.7478,718
3147105,3751,"Pará de Minas",MG,-19.8603,-44.6083,791
3147006,3753,Paracatu,MG,-17.2222,-46.8747,687
3147204,3756,Paraguaçu,MG,-21.5472,-45.7375,826
3147303,3768,Paraisópolis,MG,-22.5542,-45.7800,931
3147402,3786,Paraopeba,MG,-19.2744,-44.4042,733
3147600,3812,"Passa Quatro",MG,-22.3903,-44.9667,938
3147709,3814,"Passa Tempo",MG,-20.6506,-44.4956,980
3147808,3815,Passa-Vinte,MG,-22.2094,-44.2344,752
3147501,3816,Passabém,MG,-19.3533,-43.1364,678
3147907,3826,Passos,MG,-20.7189,-46.6097,745
3147956,3829,Patis,MG,-16.0764,-44.0819,752
3148004,3833,"Patos de Minas",MG,-18.5789,-46.5181,832
3148103,3835,Patrocínio,MG,-18.9439,-46.9925,965
3148202,3836,"Patrocínio do Muriaé",MG,-21.1525,-42.2147,179
3148301,3846,"Paula Cândido",MG,-20.8742,-42.9803,731
3148400,3855,Paulistas,MG,-18.4275,-42.8683,747
3148509,3862,Pavão,MG,-17.4278,-40.9989,228
3148608,3867,Peçanha,MG,-18.5486,-42.5569,780
